,ioc_code,gloss_id,country,location,connection,dcp_id,last_observation_level,last_observation_time,delay,interval,contacts,added_to_system,observations_arrived_per_week,observations_expected_per_week,observations_ratio_per_week,observations_arrived_per_month,observations_expected_per_month,observations_ratio_per_month,observations_ratio_per_day,sample_interval,average_delay_per_day,transmit_interval,geometry,lon,lat,stofs2d_name,unique_id
0,abas,327,Japan,Abashiri,SWJP40,ABASHIRI,2.51,12:39,12',10',Japan Meteorological Agency ( Japan ),2012-03-21 09:54:59,10030,10080.0,100.0,43110,43200.0,100.0,100.0,1',7',10',POINT (144.29 44.02),144.29,44.02,,abas
1,abed,,UK,Aberdeen,ftp,,3.39,12:15,36',15',National Oceanography Centre ( UK ),2012-09-04 21:04:28,672,672.0,100.0,2367,2880.0,82.0,100.0,15',27',15',POINT (-2.08 57.14),-2.08,57.14,,abed
2,abur,82,Japan,Aburatsu,SWJP40,ABURATSU,2.41,12:39,12',10',Japan Meteorological Agency ( Japan ),2012-03-21 10:09:41,10030,10080.0,100.0,43110,43200.0,100.0,100.0,1',7',10',POINT (131.41 31.58),131.41,31.58,,abur
3,acaj,182,El Salvador,Acajutla SV,SZXX01,300434064008810,1.14,12:44,7',5',Ministerio de Medio Ambiente y Recursos Naturales ( El Salvador ) +University of Hawaii Sea Level Center ( USA ),2008-06-20 12:17:00,9265,10080.0,92.0,38725,43200.0,90.0,92.0,1',5',5',POINT (-89.838 13.574),-89.838128,13.573792,,acaj
4,acap,267,Mexico,Acapulco MX,SEPA40,3540E15A,8.26,-down-,2922d,5',Centro de Investigación Científica y de Educación Superior de Ensenada ( Mexico ) +University of Hawaii Sea Level Center ( USA ) +Centro de Investigación Científica y de Educación Superior de Ensenada ( Mexico ),2008-04-28 12:36:00,-down-,10080.0,0.0,-down-,,0.0,0.0,1',,5',POINT (-99.917 16.833),-99.9166,16.8333,,acap
5,acap2,267,Mexico,Acapulco API,SOMX10,0100D7CA,5.08,2025-04-12 19:36,86d,10',Universidad Nacional Autónoma de México ( Mexico ),2014-05-19 10:50:47,,10080.0,0.0,,,0.0,0.0,1',,10',POINT (-99.903 16.838),-99.903,16.8379333,,acap2
6,acnj,220,USA,Atlantic City NJ,web,3367B730,0.68,12:45,6',6',National Ocean Service-NOAA ( USA ),2008-06-06 00:00:00,10080,10080.0,100.0,43153,43200.0,100.0,100.0,1',3',6',POINT (-74.418 39.355),-74.4183,39.355,,acnj
7,acnj2,220,USA,Atlantic City NJ,SXXX03,3367B730,-8.15,12:45,6',6',National Ocean Service-NOAA ( USA ),2012-12-05 18:19:24,9672,10080.0,96.0,41538,43200.0,96.0,95.0,1',4',6',POINT (-74.418 39.355),-74.4183,39.355,,acnj2
8,acor1,,Spain,A Coruña,web,,3.69,2024-06-04 11:10,398d,5',Instituto Geográfico Nacional ( Spain ),2019-12-07 10:12:36,,10080.0,0.0,,,0.0,0.0,1',,5',POINT (-8.399 43.364),-8.3988889,43.3644444,,acor1
9,acya,267,Mexico,Acapulco Club de Yates,ftp,,1.86,2025-07-03 15:14,4d,10',Universidad Nacional Autónoma de México ( Mexico ),2010-08-10 09:24:41,,10080.0,0.0,1050,43200.0,2.0,0.0,1',,10',POINT (-99.903 16.838),-99.90298,16.83799,,acya
10,adak,302,USA,Adak AK,web,3360F60E,1.02,12:42,9',6',National Ocean Service-NOAA ( USA ),2010-03-30 11:04:00,10025,10080.0,99.0,42913,43200.0,99.0,99.0,1',4',6',POINT (-176.632 51.863),-176.632,51.863,,adak
11,adak2,302,USA,Adak AK,SXXX03,3360F60E,-2.23,12:42,9',6',National Ocean Service-NOAA ( USA ),2012-12-05 18:19:24,9534,10080.0,95.0,41382,43200.0,96.0,95.0,1',4',6',POINT (-176.632 51.863),-176.632,51.863,,adak2
12,aden,3,Yemen,Aden,SXXX33,3686B76A,3.33,2024-03-20 11:11,474d,15',Yemen Gulf of Aden Ports Corporation ( Yemen ) +GeoForschungsZentrum ( Germany ),2007-10-09 11:13:00,,10080.0,0.0,,,0.0,0.0,1',,15',POINT (44.974 12.788),44.9742,12.7883,,aden
13,agal,,Mauritius,Agalega,SXXX32,3246B586,8.0,2023-12-08 11:01,577d,15',Mauritius Meteorological Services ( Mauritius ),2009-01-21 12:19:00,,3360.0,0.0,,,0.0,0.0,3',,15',POINT (56.586 -10.346),56.58556167,-10.34559167,,agal
14,agua,,Puerto Rico,Aguadilla (Crash Boat),SOVI10,A4F01158,-7.48,12:45,6',6',Universidad de Puerto Rico ( Puerto Rico ) +International Tsunami Information Center Caribbean Office ( USA ) +National Ocean Service-NOAA ( USA ),2015-04-14 10:36:08,9552,10080.0,95.0,41328,43200.0,96.0,94.0,1',5',6',POINT (-67.165 18.458),-67.165,18.4583333,,agua
15,agua2,,Puerto Rico,Aguadilla (Crash Boat) 2,web,,,-down-,,6',Universidad de Puerto Rico ( Puerto Rico ) +International Tsunami Information Center Caribbean Office ( USA ) +National Ocean Service-NOAA ( USA ),2025-02-12 18:03:48,-down-,,0.0,-down-,,0.0,0.0,',,6',POINT (-67.165 18.458),-67.165,18.4583333,,agua2
16,aigi,,Greece,"Aigio, Western Greece",bgan,GR-AIGI-00,0.01,2025-02-09 11:17,148d,1',National Observatory of Athens ( Greece ),2018-10-29 21:22:44,,10080.0,0.0,,,0.0,0.0,1',,1',POINT (22.077 38.257),22.076850891113,38.257148742676,,aigi
17,ajac,,France,Ajaccio,ftp,,0.5,12:44,7',5',Service hydrographique et océanographique de la marine ( France ) +Service hydrographique et océanographique de la marine ( France ),2009-09-18 10:30:15,10055,10080.0,100.0,43067,43200.0,100.0,100.0,1',2',5',POINT (8.76 41.92),8.76,41.92,,ajac
18,ajac2,,France,Ajaccio2,SZFR01,FR0300,0.5,12:47,4',6',Service hydrographique et océanographique de la marine ( France ) +Service hydrographique et océanographique de la marine ( France ),2011-01-10 17:04:35,10007,10080.0,99.0,42725,43200.0,99.0,100.0,1',5',6',POINT (8.76 41.92),8.76,41.92,,ajac2
19,alac1,,Spain,Alicante1,web,,-999.0,2025-06-05 17:30,32d,10',Instituto Geográfico Nacional ( Spain ),2019-12-07 10:17:22,,1008.0,0.0,38,4320.0,1.0,0.0,10',,10',POINT (-0.478 38.338),-0.47777779999999903,38.3383333,,alac1
20,alac2,,Spain,Alicante2,web,,1.72,12:40,11',10',Instituto Geográfico Nacional ( Spain ),2019-12-07 10:20:22,1007,1008.0,100.0,3600,4320.0,83.0,100.0,10',2',10',POINT (-0.481 38.339),-0.48138890000000006,38.3388889,,alac2
21,alak,,USA,Alitak US,web,3363341E,0.94,12:45,6',6',National Ocean Service-NOAA ( USA ),2008-06-19 00:00:00,10077,10080.0,100.0,43117,43200.0,100.0,100.0,1',5',6',POINT (-154.248 56.898),-154.2481,56.8975,,alak
22,alak2,,USA,Alitak US,SXXX03,3363341E,-3.73,12:45,6',6',National Ocean Service-NOAA ( USA ),2012-12-05 18:19:24,9630,10080.0,96.0,41376,43200.0,96.0,96.0,1',4',6',POINT (-154.248 56.898),-154.2481,56.8975,,alak2
23,alam,,USA,Alameda CA,web,3362E08C,0.06,12:45,6',6',National Ocean Service-NOAA ( USA ),2006-06-07 04:30:00,10063,10080.0,100.0,43106,43200.0,100.0,100.0,1',3',6',POINT (-122.298 37.772),-122.298,37.772,,alam
24,alam2,,USA,Alameda CA,SXXX03,3362E08C,-4.31,-down-,2774d,5',National Ocean Service-NOAA ( USA ),2012-12-05 18:19:24,-down-,10080.0,0.0,-down-,,0.0,0.0,1',,5',POINT (-122.298 37.772),-122.298,37.772,,alam2
25,alawa,,USA,Ala Wai Hbr,SZXX01,US-HI-ALAWAI,0.13,12:45,6',5',University of Hawaii Sea Level Center ( USA ),2023-03-29 04:51:39,9075,10080.0,90.0,38090,43200.0,88.0,90.0,1',3',5',POINT (-157.842 21.286),-157.841641,21.285954,,alawa
26,albo,,Spain,Alboran Island,web,,1.05,-down-,1007d,5',Instituto Geográfico Nacional ( Spain ) +Puertos del Estado ( Spain ),2019-11-29 14:35:12,-down-,10080.0,0.0,-down-,,0.0,0.0,1',,5',POINT (-3.034 35.939),-3.033732,35.938903,,albo
27,albu,,Portugal,Albufeira,bgan,ALBU,1.79,2022-03-22 13:40,1203d,1',Joint Research Centre ( Europe ) +Instituto Português do Mar e da Atmosfera ( Portugal ),2015-10-11 17:49:11,,10080.0,0.0,,,0.0,0.0,1',,1',POINT (-8.26 37.083),-8.260396,37.08254,,albu
28,alcu,,Spain,Alcudia,ftp,,0.56,12:47,4',4',Puertos del Estado ( Spain ),2009-10-11 21:45:00,8599,10080.0,85.0,40300,43200.0,93.0,100.0,1',3',4',POINT (3.139 39.835),3.13898,39.83456,,alcu
29,aler,333,Canada,Alert,web,,0.64,08:30,4h,10',Fisheries and Oceans Canada ( Canada ),2009-01-09 05:00:00,,10080.0,0.0,3354,43200.0,8.0,0.0,1',,10',POINT (-62.32 82.49),-62.32,82.49,,aler
30,ales,,Norway,Ålesund,web,,0.93,12:40,11',10',Norwegian Hydrographic Service ( Norway ),2023-06-28 13:34:20,1008,1008.0,100.0,4320,4320.0,100.0,100.0,10',2',10',POINT (6.152 62.469),6.151945999999999,62.469414,,ales
31,alex,,Egypt,Alexandria,SXXX32,18B54144,4.09,2025-03-10 13:36,119d,6',"National Institute of Oceanography and Fisheries, Alexandria ( Egypt ) +National Oceanography Centre ( UK )",2009-11-04 03:54:00,,10080.0,0.0,,,0.0,0.0,1',,6',POINT (29.924 31.211),29.9235,31.2109,,alex
32,alex1,,Egypt,Alexandria,bgan,ALEX1,,2023-11-26 02:43,589d,1',Joint Research Centre ( Europe ) +National Institute of Oceanographic and Fisheries ( Egypt ),2018-06-04 07:38:37,,10080.0,0.0,,,0.0,0.0,1',,1',POINT (29.885 31.212),29.884913,31.212396,,alex1
33,alex2,,Egypt,Alexandria,web,,-0.51,2025-02-06 07:31,151d,1',Joint Research Centre ( Europe ) +National Institute of Oceanographic and Fisheries ( Egypt ),2023-06-01 22:55:53,,60479.0,0.0,,,0.0,0.0,0.16667',,1',POINT (29.885 31.212),29.884913,31.212396,,alex2
34,alex3,,Egypt,alexandria,bgan,EG-ALE3-00,4.2,12:51,,1',"National Institute of Oceanography and Fisheries, Alexandria ( Egypt ) +University of Balearic Islands ( Spain )",2023-09-07 18:43:42,10077,10080.0,100.0,43191,43200.0,100.0,100.0,1',-1',1',POINT (29.885 31.212),29.8853056,31.2124898,,alex3
35,alge,,Spain,Algeciras,ftp,,1.03,12:47,4',4',Puertos del Estado ( Spain ),2009-10-15 08:41:00,8566,10080.0,85.0,26371,43200.0,61.0,100.0,1',3',4',POINT (-5.398 36.177),-5.39838,36.177,,alge
36,alme,,Spain,Almeria,ftp,,0.53,12:48,3',4',Puertos del Estado ( Spain ),2008-02-27 11:12:00,8598,10080.0,85.0,38830,43200.0,90.0,100.0,1',2',4',POINT (-2.478 36.83),-2.478349999999999,36.83002,,alme
37,alme2,,Spain,Almería,web,,2.3,12:40,11',10',Instituto Geográfico Nacional ( Spain ),2019-12-07 10:22:31,1007,1008.0,100.0,4107,4320.0,95.0,100.0,10',2',10',POINT (-2.485 36.832),-2.4847222,36.8322222,,alme2
38,alofi,,Niue,Alofi Niue,SZPS01,66570,0.77,12:47,4',3',National Tidal Centre/Australian Bureau of Meteorology ( Australia ),2019-03-20 23:27:35,10080,10080.0,100.0,43194,43200.0,100.0,100.0,1',2',3',POINT (-169.921 -19.053),-169.9209,-19.0527,,alofi
39,alva,,Mexico,Alvarado,ftp,,5.8,12:42,9',10',Universidad Nacional Autónoma de México ( Mexico ),2016-10-14 22:14:32,6828,10080.0,68.0,32471,43200.0,75.0,80.0,1',36',10',POINT (-95.756 18.766),-95.75595,18.76615,,alva
40,alva2,,Mexico,Alvarado2,SOMX10,01014052,5.82,11:02,2h,1h,Universidad Nacional Autónoma de México ( Mexico ),2020-06-30 23:55:04,9600,10080.0,95.0,41703,43200.0,97.0,100.0,1',6',1h,POINT (-95.756 18.766),-95.75595,18.76615,,alva2
41,amal,,USA,Charlotte-Amalie VI,web,3364A348,0.04,12:42,9',6',National Ocean Service-NOAA ( USA ) +International Tsunami Information Center Caribbean Office ( USA ),2010-03-08 11:51:00,1679,1680.0,100.0,7192,7200.0,100.0,100.0,6',6',6',POINT (-64.92 18.335),-64.92,18.335,,amal
42,amal2,,USA,Charlotte-Amalie VI,SXXX03,3364A348,-4.05,12:45,6',6',National Ocean Service-NOAA ( USA ) +International Tsunami Information Center Caribbean Office ( USA ),2012-12-05 18:19:24,9522,10080.0,94.0,40782,43200.0,94.0,94.0,1',6',6',POINT (-64.92 18.335),-64.92,18.335,,amal2
43,amas,,Turkey,Amasra,web,,1.96,12:36,15',2',General Directorate of Mapping ( Turkey ),2020-11-05 21:54:57,20022,20160.0,99.0,84737,86400.0,98.0,98.0,0.5',2',2',POINT (32.392 41.744),32.391750335693,41.744358062744,,amas
44,ambon,68,Indonesia,Ambon,SZID40,06503AC6,5.42,2025-01-13 01:24,175d,6',Geospacial Agency of Indonesia ( Indonesia ) +University of Hawaii Sea Level Center ( USA ),2008-11-20 12:43:00,,3360.0,0.0,,,0.0,0.0,3',,6',POINT (128.183 -3.683),128.18333,-3.683333,,ambon
45,AN15,,Italy,Ancona,web,,0.24,12:48,3',5',Istituto Superiore per la Protezione e la Ricerca Ambientale ( Italy ),2013-12-17 14:35:57,10080,10080.0,100.0,43200,43200.0,100.0,100.0,1',3',5',POINT (13.507 43.625),13.506516666666666,43.624766666666666,,AN15
46,anch,,USA,Anchorage AK,web,3363B20A,8.03,12:45,6',6',National Ocean Service-NOAA ( USA ),2008-06-21 00:00:00,10080,10080.0,100.0,43153,43200.0,100.0,100.0,1',3',6',POINT (-149.888 61.238),-149.888,61.238,,anch
47,anch2,,USA,Anchorage AK,SXXX03,3363B20A,-3.27,12:44,7',6',National Ocean Service-NOAA ( USA ),2012-12-05 18:19:24,9678,10080.0,96.0,41388,43200.0,96.0,97.0,1',5',6',POINT (-149.888 61.238),-149.888,61.238,,anch2
48,ancu,,Chile,Ancud,SXCH40,ADC01B9A,5.49,12:46,5',5',Servicio Hidrográfico y Oceanográfico de la Armada ( Chile ) +Servicio Hidrográfico y Oceanográfico de la Armada ( Chile ),2008-06-16 07:49:00,8995,10080.0,89.0,30923,43200.0,72.0,88.0,1',3',5',POINT (-73.833 -41.867),-73.83288,-41.867383,,ancu
49,ancu2,,Chile,Ancud,web,,4.97,12:45,6',5',Servicio Hidrográfico y Oceanográfico de la Armada ( Chile ) +Servicio Hidrográfico y Oceanográfico de la Armada ( Chile ),2013-03-18 17:40:25,10074,10080.0,100.0,42916,43200.0,99.0,100.0,1',2',5',POINT (-73.833 -41.867),-73.83288,-41.867383,,ancu2
50,ande,322,Norway,Andenes,web,,1.26,12:40,11',10',Norwegian Hydrographic Service ( Norway ),2008-12-16 23:00:00,1008,1008.0,100.0,4320,4320.0,100.0,100.0,10',5',10',POINT (16.135 69.326),16.134848,69.326067,,ande
51,angu,,Anguilla,Road Bay,SOTI10,C7906572,0.12,12:45,6',5',UK Hydrographic Office ( UK ) +OceanWise,2024-03-21 16:08:41,9290,10080.0,92.0,39325,43200.0,91.0,93.0,1',3',5',POINT (-63.093 18.197),-63.09268229,18.1969967,,angu
52,anta,,Turkey,Antalya,web,,1.21,12:36,15',2',General Directorate of Mapping ( Turkey ) +Kandilli Observatory and Earthquake Research Institute ( Turkey ),2019-11-27 22:19:05,20116,20160.0,100.0,84751,86400.0,98.0,100.0,0.5',3',2',POINT (30.613 36.836),30.612609863281,36.835536956787,,anta
53,anto,174,Chile,Antofagasta CL,SXCH40,ADC0F6BA,5.7,12:48,3',5',Servicio Hidrográfico y Oceanográfico de la Armada ( Chile ) +Servicio Hidrográfico y Oceanográfico de la Armada ( Chile ),2008-06-16 08:26:00,9590,10080.0,95.0,41300,43200.0,96.0,94.0,1',3',5',POINT (-70.405 -23.654),-70.40462436,-23.65421517,,anto
54,anto2,174,Chile,Antofagasta CL,web,,5.27,12:47,4',5',Servicio Hidrográfico y Oceanográfico de la Armada ( Chile ) +Servicio Hidrográfico y Oceanográfico de la Armada ( Chile ),2013-03-18 17:40:25,10040,10080.0,100.0,43126,43200.0,100.0,100.0,1',3',5',POINT (-70.405 -23.654),-70.40462436,-23.65421517,,anto2
55,apfl,,USA,Apalachicola FL,web,3346C2B4,0.73,12:45,6',6',National Ocean Service-NOAA ( USA ),2008-06-19 00:00:00,10077,10080.0,100.0,43137,43200.0,100.0,100.0,1',3',6',POINT (-84.982 29.727),-84.982,29.727,,apfl
56,apfl2,,USA,Apalachicola FL,SXXX03,3346C2B4,-5.94,12:44,7',6',National Ocean Service-NOAA ( USA ),2012-12-05 18:19:24,9594,10080.0,95.0,40950,43200.0,95.0,94.0,1',5',6',POINT (-84.982 29.727),-84.982,29.727,,apfl2
57,apla,,USA,"Lawma, Amerada Pass, LA",web,334773C0,0.46,2025-05-23 21:55,45d,6',National Ocean Service-NOAA ( USA ),2009-02-06 00:00:00,,10080.0,0.0,,,0.0,0.0,1',,6',POINT (-91.338 29.45),-91.3381,29.4496,,apla
58,apla2,,USA,"Lawma, Amerada Pass, LA",SXXX90,AMRL1,-8.16,2023-10-24 07:15,622d,6',National Ocean Service-NOAA ( USA ),2012-12-05 18:19:24,,10080.0,0.0,,,0.0,0.0,1',,6',POINT (-91.338 29.45),-91.3381,29.4496,,apla2
59,aqab,,Jordan,Aqaba,ftp,,-0.34,12:25,26',30',"Aqaba Marine Reserve, Research and studies division ( Jordan )",2024-10-17 17:13:24,1728,2016.0,86.0,7977,8640.0,92.0,100.0,5',7',30',POINT (34.979 29.409),34.97872,29.40897,,aqab
60,arac,,Puerto Rico,Arecibo,web,,0.53,-down-,1137d,6',Puerto Rico Seismic Network ( USA ) +National Ocean Service-NOAA ( USA ) +International Tsunami Information Center Caribbean Office ( USA ),2009-05-13 00:00:00,-down-,10080.0,0.0,-down-,,0.0,0.0,1',,6',POINT (-66.702 18.48),-66.7024,18.4805,,arac
61,aracS,,Puerto Rico,Arecibo (GTS),SXXX03,3366454E,-3.24,2025-06-02 16:18,35d,6',Puerto Rico Seismic Network ( USA ) +National Ocean Service-NOAA ( USA ) +International Tsunami Information Center Caribbean Office ( USA ),2010-02-28 22:53:00,,10080.0,0.0,2268,43200.0,5.0,0.0,1',,6',POINT (-66.702 18.48),-66.7024,18.4805,,aracS
62,arca,,France,Arcachon Eyrac,ftp,,3.28,12:45,6',5',Service hydrographique et océanographique de la marine ( France ) +Service hydrographique et océanographique de la marine ( France ),2010-02-03 14:47:21,10055,10080.0,100.0,43160,43200.0,100.0,100.0,1',1',5',POINT (-1.164 44.665),-1.16355,44.665,,arca
63,arca2,,France,Arcachon Eyrac 2,SZFR01,FR190,3.24,12:38,13',6',Service hydrographique et océanographique de la marine ( France ) +Service hydrographique et océanographique de la marine ( France ),2016-11-07 17:52:16,8725,10080.0,87.0,39011,43200.0,90.0,89.0,1',5',6',POINT (-1.164 44.665),-1.16355,44.665,,arca2
64,aren,,USA,Arena Cove CA,web,3368115A,0.27,12:38,13',6',National Ocean Service-NOAA ( USA ),2008-06-21 00:00:00,10072,10080.0,100.0,43039,43200.0,100.0,100.0,1',10',6',POINT (-123.705 38.913),-123.705,38.913,,aren
65,aren2,,USA,Arena Cove CA,SXXX03,336AF75C,-5.31,12:45,6',6',National Ocean Service-NOAA ( USA ),2012-12-05 18:19:24,9648,10080.0,96.0,41058,43200.0,95.0,95.0,1',4',6',POINT (-123.705 38.913),-123.705,38.913,,aren2
66,aric,,Chile,Arica CL,SXCH40,ADC0D056,4.78,12:47,4',5',Servicio Hidrográfico y Oceanográfico de la Armada ( Chile ) +Servicio Hidrográfico y Oceanográfico de la Armada ( Chile ),2008-06-19 12:35:00,9575,10080.0,95.0,40690,43200.0,94.0,93.0,1',3',5',POINT (-70.323 -18.476),-70.3232305,-18.4758,,aric
67,aric2,,Chile,Arica CL,web,,4.32,12:46,4',5',Servicio Hidrográfico y Oceanográfico de la Armada ( Chile ) +Servicio Hidrográfico y Oceanográfico de la Armada ( Chile ),2013-03-18 17:40:25,10080,10080.0,100.0,43139,43200.0,100.0,100.0,1',2',5',POINT (-70.323 -18.476),-70.3232305,-18.4758,,aric2
68,arko,,Sweden,Arko,web,,0.34,12:00,51',1h,Swedish Meteorological and Hydrological Institute ( Sweden ) +Swedish Maritime Administration ( Sweden ),2021-10-18 15:08:47,10064,10080.0,100.0,43128,43200.0,100.0,100.0,1',24',1h,POINT (16.961 58.484),16.960556,58.484167,,arko
69,arrc,,Brasil,Arraial do Cabo,SEPO40,B5B007D4,2.5,-maintenance-,810d,5',Instituto Brasileiro de Geografia e Estatística ( Brasil ),2017-08-24 17:09:53,,10080.0,0.0,,,0.0,0.0,1',,5',POINT (-42.014 -22.973),-42.013796,-22.97258,,arrc
70,arrc2,,Brasil,Porto do Forno,web,,2.57,12:45,6',10',Instituto Brasileiro de Geografia e Estatística ( Brasil ),2024-01-17 11:20:39,10080,10080.0,100.0,43180,43200.0,100.0,100.0,1',5',10',POINT (-42.014 -22.973),-42.013611,-22.9725,,arrc2
71,arre,,Spain,Arrecife,ftp,,2.41,12:47,4',4',Puertos del Estado ( Spain ),2008-08-04 21:47:00,8596,10080.0,85.0,40360,43200.0,93.0,100.0,1',3',4',POINT (-13.53 28.972),-13.53006,28.97188,,arre
72,arri,,Portugal,Arrifana,bgan,ARRI,0.97,2022-10-24 00:25,988d,1',Joint Research Centre ( Europe ) +Instituto Português do Mar e da Atmosfera ( Portugal ),2018-08-29 12:17:34,,10080.0,0.0,,,0.0,0.0,1',,1',POINT (-8.869 37.296),-8.869385,37.295569,,arri
73,arsu,,Turkey,Arsuz (Hatay),web,,1.7,12:36,15',2',General Directorate of Mapping ( Turkey ) +Kandilli Observatory and Earthquake Research Institute ( Turkey ),2023-02-21 14:27:16,20116,20160.0,100.0,84758,86400.0,98.0,100.0,0.5',3',2',POINT (35.885 36.416),35.88519,36.41559,,arsu
74,ascen,263,UK,Ascension,SXXX32,265C94AA,6.78,12:38,13',6',National Oceanography Centre ( UK ),2008-06-17 05:55:00,10038,10080.0,100.0,42990,43200.0,100.0,99.0,1',14',6',POINT (-14.386 -7.893),-14.3857,-7.8928,,ascen
75,ashd,,Israel,Ashdod Port,ftp,,0.16,-down-,3148d,1',Israel Oceanographic and Limnological Research Ltd ( Israel ),2012-04-23 12:21:27,-down-,40320.0,0.0,-down-,,0.0,0.0,0.25',,1',POINT (34.642 31.831),34.64155,31.83051,,ashd
76,ashd1,,Israel,Ashdod Marina,bgan,ASHD1,3.8,-down-,1663d,1',Joint Research Centre ( Europe ) +Israel Oceanographic and Limnological Research Ltd ( Israel ),2018-02-02 06:25:05,-down-,10080.0,0.0,-down-,,0.0,0.0,1',,1',POINT (34.626 31.796),34.626447,31.796269,,ashd1
77,ashk,,Oman,Ashkhara,SXOM33,18E447FC,0.44,-down-,2029d,6',Directorate General Meteorology and Air Navigation ( Oman ),2013-03-28 18:03:42,-down-,10080.0,0.0,-down-,,0.0,0.0,1',,6',POINT (59.57 21.85),59.57,21.85,,ashk
78,askl,,Israel,Ashkelon,ftp,,0.26,-down-,3142d,1',Israel Oceanographic and Limnological Research Ltd ( Israel ),2013-05-23 10:37:20,-down-,40320.0,0.0,-down-,,0.0,0.0,0.25',,1',POINT (34.494 31.635),34.493757,31.634928,,askl
79,asro,,Nicaragua,Aserraderos,bgan,NI-asro-00,4.46,-down-,1852d,1',Central American Tsunami Advisory Center ( Nicaragua ),2019-09-24 22:36:23,-down-,10080.0,0.0,-down-,,0.0,0.0,1',,1',POINT (-87.342 12.626),-87.342,12.626,,asro
80,asto,,USA,Astoria OR,web,335086EE,-0.2,12:43,8',6',National Ocean Service-NOAA ( USA ),2008-06-21 00:00:00,9957,10080.0,99.0,42497,43200.0,98.0,99.0,1',4',6',POINT (-123.767 46.208),-123.767,46.208,,asto
81,asto2,,USA,Astoria OR,SZPZ34,ASTO3,0.04,11:49,1h,6',National Ocean Service-NOAA ( USA ),2012-12-05 18:19:24,9420,10080.0,93.0,35190,43200.0,81.0,97.0,1',8',6',POINT (-123.767 46.208),-123.767,46.208,,asto2
82,atic,,Perú,"Atico, Arequipa PE",web,,2.05,11:42,1h,5',Dirección de Hidrografía y Navegación (Perú) +Pacific Tsunami Warning Center ( USA ),2008-06-19 05:42:00,2623,10080.0,26.0,14672,43200.0,34.0,0.0,1',,5',POINT (-73.694 -16.231),-73.6944,-16.2311,,atic
83,atka,,USA,"Atka, AK",web,,1.0,12:41,10',5',National Ocean Service-NOAA ( USA ),2009-02-06 00:00:00,10026,10080.0,99.0,42898,43200.0,99.0,99.0,1',5',5',POINT (-174.173 52.232),-174.173,52.2317,,atka
84,auasi,,Samoa,Auasi,SZXX01,300434066941760,1.56,12:45,6',5',+University of Hawaii Sea Level Center ( USA ),2023-04-14 21:58:41,8770,10080.0,87.0,36890,43200.0,85.0,88.0,1',4',5',POINT (-170.573 -14.272),-170.57307,-14.271544,,auasi
85,auct,127,New Zealand,Auckland NZ,SZNZ01,AUCT,5.38,12:47,4',3',Land Information New Zealand ( New Zealand ),2014-05-27 20:37:09,10079,10080.0,100.0,43094,43200.0,100.0,100.0,1',4',3',POINT (174.786 -36.831),174.7865,-36.8314,,auct
86,audi,,France,Audierne,ftp,,4.1,12:44,7',5',Service hydrographique et océanographique de la marine ( France ) +Service hydrographique et océanographique de la marine ( France ),2018-06-29 11:29:16,10070,10080.0,100.0,43125,43200.0,100.0,100.0,1',2',5',POINT (-4.537 48.022),-4.5372,48.0216,,audi
87,audi2,,France,Audierne 2,SZFR01,FR6305,4.1,12:44,7',6',Service hydrographique et océanographique de la marine ( France ) +Service hydrographique et océanographique de la marine ( France ),2018-06-29 11:42:11,10032,10080.0,100.0,43014,43200.0,100.0,100.0,1',5',6',POINT (-4.537 48.022),-4.5372,48.0216,,audi2
88,aunuu,,Samoa,Aunuu,SZXX01,300434066946670,1.57,12:45,6',5',+University of Hawaii Sea Level Center ( USA ),2023-04-14 21:54:24,8720,10080.0,87.0,36830,43200.0,85.0,88.0,1',5',5',POINT (-170.561 -14.283),-170.561021,-14.283449,,aunuu
89,avon,,UK,Avonmouth Portbury,ftp,,5.12,12:15,36',15',National Oceanography Centre ( UK ),2012-09-04 21:04:28,657,672.0,98.0,2625,2880.0,91.0,97.0,15',26',15',POINT (-2.73 51.5),-2.73,51.5,,avon
90,AZ42,,Italy,Anzio,web,,-0.07,12:48,3',5',Istituto Superiore per la Protezione e la Ricerca Ambientale ( Italy ),2013-12-17 14:35:57,10080,10080.0,100.0,42928,43200.0,99.0,100.0,1',3',5',POINT (12.635 41.447),12.634797222222222,41.44685833333333,,AZ42
91,BA05,,Italy,Bari,web,,0.16,12:48,3',5',Istituto Superiore per la Protezione e la Ricerca Ambientale ( Italy ),2013-12-17 14:35:57,10080,10080.0,100.0,42863,43200.0,99.0,100.0,1',3',5',POINT (16.866 41.14),16.866033333333,41.140205555556,,BA05
92,baka,,Croatia,Bakar,ftp,,0.94,06:00,7h,1d,"Department of Geophysics, Faculty of Science, University of Zagreb ( Croatia )",2024-10-09 12:32:34,,10080.0,0.0,10830,43200.0,25.0,0.0,1',,1d,POINT (14.54 45.305),14.54,45.305,,baka
93,balc,,Colombia,Ballenas,ftp,,3.49,2025-06-11 13:05,26d,10',Dirección General Marítima ( Colombia ),2022-09-29 14:58:46,,10080.0,0.0,11169,43200.0,26.0,0.0,1',,10',POINT (-72.724 11.7),-72.72417,11.7002783,,balc
94,ball,,Ireland,"Ballyglass pier, Belmullet",ftp,,-32.76,12:45,6',1h,Marine Institute ( Ireland ),2008-06-11 10:06:00,1990,2016.0,99.0,6429,8640.0,74.0,99.0,5',47',1h,POINT (-9.89 54.253),-9.89,54.253,,ball
95,balt,169,Ecuador,"Baltra,Galapagos EC",SEEQ40,932040EE,-0.28,12:47,4',5',Instituto Oceanográfico de la Armada ( Ecuador ) +University of Hawaii Sea Level Center ( USA ),2008-06-03 15:38:00,10035,10080.0,100.0,42960,43200.0,99.0,100.0,1',3',5',POINT (-90.283 -0.433),-90.283,-0.433,,balt
96,bamd,,USA,Baltimore MD,web,336577DA,0.73,12:42,9',6',National Ocean Service-NOAA ( USA ),2006-06-07 04:30:00,1677,1680.0,100.0,7191,7200.0,100.0,100.0,6',5',6',POINT (-76.578 39.267),-76.578,39.267,,bamd
97,bamd2,,USA,Baltimore MD,SXXX03,336577DA,-3.8,-maintenance-,742d,6',National Ocean Service-NOAA ( USA ),2012-12-05 18:19:24,,10080.0,0.0,,,0.0,0.0,1',,6',POINT (-76.578 39.267),-76.578,39.267,,bamd2
98,bame,,USA,Bar Harbor ME,web,336747B4,2.86,12:42,9',6',National Ocean Service-NOAA ( USA ),2008-06-21 00:00:00,1680,1680.0,100.0,7187,7200.0,100.0,100.0,6',8',6',POINT (-68.205 44.392),-68.205,44.3916,,bame
99,bame2,,USA,Bar Harbor ME,SXXX03,336747B4,-3.33,12:44,7',6',National Ocean Service-NOAA ( USA ),2012-12-05 18:19:24,9504,10080.0,94.0,41322,43200.0,96.0,95.0,1',5',6',POINT (-68.205 44.392),-68.205,44.3916,,bame2
100,bamf,,Canada,Bamfield,web,,0.69,12:48,3',10',Fisheries and Oceans Canada ( Canada ),2008-10-23 00:00:00,10056,10080.0,100.0,43172,43200.0,100.0,100.0,1',,10',POINT (-125.14 48.84),-125.14,48.84,,bamf
101,bang,,UK,Bangor,ftp,,1.67,12:15,36',15',National Oceanography Centre ( UK ),2012-09-04 21:04:28,672,672.0,100.0,2700,2880.0,94.0,100.0,15',26',15',POINT (-5.67 54.66),-5.669999999999999,54.66,,bang
102,bapj,,Australia,Battery Point AU,SZAU01,61221,0.74,12:47,4',3',National Tidal Centre/Australian Bureau of Meteorology ( Australia ),2019-03-18 11:31:40,10080,10080.0,100.0,43197,43200.0,100.0,100.0,1',2',3',POINT (147.338 -42.892),147.338,-42.8923,,bapj
103,bara,,Dominican Republic,Barahona,SXDR40,04401622,6.25,12:45,6',5',Oficina Nacional de Meteorología (Dominican Republic) +Puerto Rico Seismic Network ( USA ) +International Tsunami Information Center Caribbean Office ( USA ),2012-04-22 14:19:57,,10080.0,0.0,18806,43200.0,44.0,0.0,1',,5',POINT (-71.092 18.208),-71.092154,18.208137,,bara
104,barb,,Antigua,Barbuda,web,,-0.58,-down-,1662d,6',Antigua & Barbuda Meteorological Services ( Antigua & Barbuda ) +National Ocean Service-NOAA ( USA ) +International Tsunami Information Center Caribbean Office ( USA ),2012-04-05 11:02:31,-down-,1680.0,0.0,-down-,,0.0,0.0,6',,6',POINT (-61.821 17.591),-61.8206,17.5907,,barb
105,barb2,,Antigua,Barbuda,SXXX03,334550D8,16.06,2023-10-07 16:56,639d,6',Antigua & Barbuda Meteorological Services ( Antigua & Barbuda ) +National Ocean Service-NOAA ( USA ) +International Tsunami Information Center Caribbean Office ( USA ),2012-12-05 18:19:24,,10080.0,0.0,,,0.0,0.0,1',,6',POINT (-61.821 17.591),-61.8206,17.5907,,barb2
106,barc,,Spain,Barcelona,ftp,,0.44,12:47,4',4',Puertos del Estado ( Spain ),2008-02-27 11:12:00,8596,10080.0,85.0,40271,43200.0,93.0,100.0,1',3',4',POINT (2.166 41.342),2.1657,41.34177,,barc
107,barc2,,Spain,Port of Barcelona,SXXX33,1825C776,3.28,12:42,9',6',+Puertos del Estado ( Spain ) +National Oceanography Centre ( UK ),2022-02-25 09:33:52,10038,10080.0,100.0,42996,43200.0,100.0,100.0,1',4',6',POINT (2.187 41.363),2.187024,41.362977,,barc2
108,barm,,UK,Barmouth,ftp,,1.63,12:15,36',15',National Oceanography Centre ( UK ),2012-09-04 21:04:28,671,672.0,100.0,2690,2880.0,93.0,99.0,15',26',15',POINT (-4.05 52.72),-4.049999999999999,52.72,,barm
109,barn,,Australia,Burnie Tasmania AU,SZAU01,60910,2.42,12:47,4',3',National Tidal Centre/Australian Bureau of Meteorology ( Australia ),2007-12-12 10:14:00,10080,10080.0,100.0,43197,43200.0,100.0,100.0,1',2',3',POINT (145.915 -41.05),145.915,-41.0501,,barn
110,bars,,Sweden,Barseback,web,,0.26,12:00,51',1h,Swedish Meteorological and Hydrological Institute ( Sweden ) +Swedish Maritime Administration ( Sweden ),2021-10-18 15:30:23,10079,10080.0,100.0,43185,43200.0,100.0,100.0,1',24',1h,POINT (12.903 55.756),12.903333,55.756389,,bars
111,bass,,St. Kitts & Nevis,Basseterre (Coast Guard Base),SOAT10,FA8005BC,,-down-,875d,5',National Emergency Management Agency ( St. Kitts & Nevis ) +International Tsunami Information Center Caribbean Office ( USA ),2013-12-05 11:43:18,-down-,10080.0,0.0,-down-,,0.0,0.0,1',,5',POINT (-62.71 17.29),-62.7097333,17.2900333,,bass
112,batr,,Lebanon,Batroun,bgan,BATR,6.25,2023-03-20 10:28,840d,1',Joint Research Centre ( Europe ) +National Centre for Geophysical Research ( Lebanon ),2016-06-30 07:25:26,,10080.0,0.0,,,0.0,0.0,1',,1',POINT (35.656 34.252),35.65641,34.25156,,batr
113,bayo,,Perú,"Bayovar,Piura PE",web,,3.4,2024-11-19 12:09,230d,5',Dirección de Hidrografía y Navegación (Perú),2022-09-29 15:05:49,,10080.0,0.0,,,0.0,0.0,1',,5',POINT (-81.054 -5.794),-81.0544,-5.7938,,bayo
114,bbbc,,Canada,Bella Bella,SXAK50,CD401E4C,1.2,12:48,3',5',Fisheries and Oceans Canada ( Canada ),2016-03-01 12:50:55,9491,10080.0,94.0,40027,43200.0,93.0,96.0,1',,5',POINT (-128.14 52.16),-128.14,52.16,,bbbc
115,bbst,221,Bermudas,Bermuda Biological Station,web,,0.53,-down-,712d,6',National Ocean Service-NOAA ( USA ) +International Tsunami Information Center Caribbean Office ( USA ),2020-07-02 21:19:07,-down-,10080.0,0.0,-down-,,0.0,0.0,1',,6',POINT (-64.695 32.37),-64.695,32.37,,bbst
116,bbst2,221,Bermudas,Bermuda Biological Station2,SXXX03,334032FE,-1.73,-down-,712d,6',National Ocean Service-NOAA ( USA ) +International Tsunami Information Center Caribbean Office ( USA ),2020-07-02 21:26:59,-down-,10080.0,0.0,-down-,,0.0,0.0,1',,6',POINT (-64.695 32.37),-64.695,32.37,,bbst2
117,bcar,,Ecuador,Bahía de Caráquez,web,,1.74,12:29,22',10',Instituto Oceanográfico de la Armada ( Ecuador ),2022-09-29 17:52:21,10080,10080.0,100.0,38990,43200.0,90.0,100.0,1',21',10',POINT (-80.423 -0.607),-80.423,-0.6069999999999991,,bcar
118,bcon,,Barbados,Consett Bay Jetty,web,,-999.0,12:48,3',1',Barbados Meteorological Services ( Barbados ) +International Tsunami Information Center Caribbean Office ( USA ),2023-11-17 14:17:16,10080,10080.0,100.0,43163,43200.0,100.0,100.0,1',2',1',POINT (-59.466 13.179),-59.466331,13.179314,,bcon
119,bdto,,Panamá,Bocas Del Toro,SOPM10,F230215A,-2.73,12:48,3',5',Smithsonian Tropical Research Institute ( USA ) +International Tsunami Information Center Caribbean Office ( USA ),2014-10-17 17:11:17,9829,10080.0,98.0,42002,43200.0,97.0,98.0,1',3',5',POINT (-82.258 9.351),-82.257703,9.350921,,bdto
120,bele,,Brasil,Belém,SEPO40,B5B01A70,7.09,2024-06-07 14:38,395d,5',Instituto Brasileiro de Geografia e Estatística ( Brasil ),2019-11-26 17:19:28,,10080.0,0.0,,,0.0,0.0,1',,5',POINT (-48.496 -1.442),-48.496339,-1.442244,,bele
121,bele2,,Brasil,Porto de Belém,web,,-999.0,2025-04-20 10:35,78d,10',Instituto Brasileiro de Geografia e Estatística ( Brasil ),2024-01-17 11:12:15,,10080.0,0.0,,,0.0,0.0,1',,10',POINT (-48.496 -1.442),-48.496389,-1.442221999999999,,bele2
122,benc,,USA,Beaufort NC,web,3364C6AE,0.51,12:45,6',6',National Ocean Service-NOAA ( USA ),2008-06-21 00:00:00,10068,10080.0,100.0,43133,43200.0,100.0,100.0,1',2',6',POINT (-76.67 34.72),-76.67,34.72,,benc
123,benc2,,USA,Beaufort NC,SXXX03,3364C6AE,-3.42,12:45,6',6',National Ocean Service-NOAA ( USA ),2012-12-05 18:19:24,9450,10080.0,94.0,40686,43200.0,94.0,94.0,1',7',6',POINT (-76.67 34.72),-76.67,34.72,,benc2
124,beno,49,Indonesia,Benoa,SZXX01,300434067150400,-999.0,12:45,6',5',Geospacial Agency of Indonesia ( Indonesia ) +University of Hawaii Sea Level Center ( USA ),2006-06-07 08:37:00,9055,10080.0,90.0,38410,43200.0,89.0,90.0,1',4',5',POINT (115.217 -8.767),115.2166,-8.7666,,beno
125,berg,,Norway,Bergen,web,,0.76,12:40,11',10',Norwegian Hydrographic Service ( Norway ),2023-06-28 13:12:24,1008,1008.0,100.0,4320,4320.0,100.0,100.0,10',3',10',POINT (5.32 60.398),5.320487,60.398046,,berg
126,bgct,,USA,Bridgeport CT,web,,1.84,12:42,9',6',National Ocean Service-NOAA ( USA ),2006-06-07 04:30:00,1679,1680.0,100.0,7191,7200.0,100.0,100.0,6',5',6',POINT (-73.182 41.173),-73.1816,41.1733,,bgct
127,bgct2,,USA,Bridgeport CT,SXXX03,3372E712,-4.72,12:45,6',6',National Ocean Service-NOAA ( USA ),2012-12-05 18:19:24,9558,10080.0,95.0,40860,43200.0,95.0,93.0,1',4',6',POINT (-73.182 41.173),-73.1816,41.1733,,bgct2
128,bil3,,Spain,Bilbao3,ftp,,3.44,12:47,4',4',Puertos del Estado ( Spain ),2008-03-25 14:04:00,8546,10080.0,85.0,40723,43200.0,94.0,100.0,1',540',4',POINT (-3.045 43.352),-3.045129999999999,43.35153,,bil3
129,bitu,69,Indonesia,Bitung,SZXX01,300434067058990,7.63,12:45,6',5',Geospacial Agency of Indonesia ( Indonesia ) +University of Hawaii Sea Level Center ( USA ),2008-11-20 13:48:00,9171,10080.0,91.0,38736,43200.0,90.0,91.0,1',4',5',POINT (125.19 1.439),125.190431,1.438944,,bitu
130,blkw,,Belgium,Blankenberge,web,,3.11,12:40,11',5',Maritieme Dienstverlening en Kust ( Belgium ),2023-10-05 16:44:56,2016,2016.0,100.0,8638,8640.0,100.0,100.0,5',8',5',POINT (3.116 51.311),3.116388889,51.31055556,,blkw
131,blow,,Anguilla,Blowing Point,SOAT10,A84006AC,6.73,12:45,6',5',Anguilla Department of Disaster Management ( Anguilla ) +International Tsunami Information Center Caribbean Office ( USA ),2017-04-21 09:17:59,10010,10080.0,99.0,42945,43200.0,99.0,100.0,1',2',5',POINT (-63.093 18.171),-63.0926167,18.1710861,,blow
132,blri,,USA,Prudence Island RI,SXXX03,334F6410,,,,6',National Ocean Service-NOAA ( USA ),2006-06-07 04:30:00,,,0.0,,,0.0,0.0,',,6',POINT (-71.3 41.6),-71.3,41.6,,blri
133,blueb,,Mauritius,Blue Bay,SXXX32,22BF90A6,3.02,12:45,6',15',Mauritius Meteorological Services ( Mauritius ),2009-01-21 12:18:00,3295,3360.0,98.0,14140,14400.0,98.0,94.0,3',5',15',POINT (57.711 -20.444),57.71095,-20.44413333,,blueb
134,bmda,221,UK,Bermuda St Georges,web,,0.31,12:38,13',6',National Ocean Service-NOAA ( USA ) +International Tsunami Information Center Caribbean Office ( USA ),2008-06-18 00:00:00,10022,10080.0,99.0,43049,43200.0,100.0,99.0,1',8',6',POINT (-64.7 32.367),-64.7,32.36667,,bmda
135,bmda2,221,UK,Bermuda St Georges2,SXXX03,33573754,,-down-,,6',National Ocean Service-NOAA ( USA ),2012-12-05 18:19:24,-down-,,0.0,-down-,,0.0,0.0,',,6',POINT (-64.7 32.367),-64.7,32.36667,,bmda2
136,bmsa,,Chile,Bahia Mansa CL,SXCH40,14063458,4.96,12:47,4',5',Servicio Hidrográfico y Oceanográfico de la Armada ( Chile ) +Servicio Hidrográfico y Oceanográfico de la Armada ( Chile ),2011-05-23 17:09:46,9445,10080.0,94.0,41200,43200.0,95.0,93.0,1',2',5',POINT (-73.737 -40.581),-73.737036,-40.580942,,bmsa
137,bmsa2,,Chile,Bahia Mansa CL,web,,4.52,12:46,5',5',Servicio Hidrográfico y Oceanográfico de la Armada ( Chile ) +Servicio Hidrográfico y Oceanográfico de la Armada ( Chile ),2013-03-18 17:40:25,10078,10080.0,100.0,43175,43200.0,100.0,100.0,1',3',5',POINT (-73.737 -40.581),-73.737036,-40.580942,,bmsa2
138,bmsg,,Bermudas,Bermuda St. George's Cruise Pier,SOTI10,C79013E2,3.26,2023-09-14 23:44,662d,5',UK Hydrographic Office ( UK ),2021-03-25 16:59:17,,2016.0,0.0,,,0.0,0.0,5',,5',POINT (-64.676 32.38),-64.676173,32.38009,,bmsg
139,bmso,,Bermudas,Bermuda Somerset,SOTI10,C7901D30,2.9,12:49,2',5',UK Hydrographic Office ( UK ),2022-01-07 15:54:08,1929,2016.0,96.0,8347,8640.0,97.0,95.0,5',3',5',POINT (-64.876 32.278),-64.875617,32.278308,,bmso
140,bnjl,,Gambia,Banjul,ftp,18D497E4,1.37,-down-,2946d,1h,Department of Water Resources ( Gambia ) +State Meteorological Agency ( Spain ) +Puertos del Estado ( Spain ),2015-09-04 21:43:50,-down-,672.0,0.0,-down-,,0.0,0.0,15',,1h,POINT (-16.573 13.443),-16.5733333,13.4430556,,bnjl
141,bodo,,Norway,Bodø,web,,1.4,12:40,11',10',Norwegian Hydrographic Service ( Norway ),2023-06-28 13:15:25,1008,1008.0,100.0,4320,4320.0,100.0,100.0,10',7',10',POINT (14.4 67.292),14.39977,67.29233,,bodo
142,bodr,,Turkey,Bodrum,web,,1.8,12:36,15',2',General Directorate of Mapping ( Turkey ) +Kandilli Observatory and Earthquake Research Institute ( Turkey ),2010-11-30 13:40:59,20160,20160.0,100.0,84805,86400.0,98.0,100.0,0.5',7',2',POINT (27.423 37.032),27.423453,37.03217,,bodr
143,bodri,,Turkey,Bodrum (IDSL),bgan,BODRI,1.48,-down-,590d,1',Joint Research Centre ( Europe ) +Kandilli Observatory and Earthquake Research Institute ( Turkey ),2019-10-26 20:02:53,-down-,10080.0,0.0,-down-,,0.0,0.0,1',,1',POINT (27.425 37.031),27.42477,37.031054,,bodri
144,bois,,Barbados,Oistins Jetty,web,,5.26,12:48,3',1',Barbados Meteorological Services ( Barbados ) +International Tsunami Information Center Caribbean Office ( USA ),2023-11-17 14:17:30,10079,10080.0,100.0,43165,43200.0,100.0,100.0,1',3',1',POINT (-59.547 13.071),-59.547,13.0706,,bois
145,boma,,USA,Boston MA,web,335E54EE,2.41,12:42,9',6',National Ocean Service-NOAA ( USA ),2008-06-21 00:00:00,1680,1680.0,100.0,7192,7200.0,100.0,100.0,6',5',6',POINT (-71.052 42.355),-71.0516,42.355,,boma
146,boma2,,USA,Boston MA,SXLA03,3373C304,,,,5',National Ocean Service-NOAA ( USA ),2012-12-05 18:19:24,,,0.0,,,0.0,0.0,',,5',POINT (-71.052 42.355),-71.0516,42.355,,boma2
147,bon2,,Spain,Bonanza2,ftp,,2.56,12:47,4',4',Puertos del Estado ( Spain ),2014-01-16 15:41:43,8596,10080.0,85.0,40275,43200.0,93.0,100.0,1',3',4',POINT (-6.338 36.802),-6.338129999999999,36.80221,,bon2
148,bona,,Sweden,Bonan,web,,0.34,12:00,51',1h,Swedish Meteorological and Hydrological Institute ( Sweden ) +Swedish Maritime Administration ( Sweden ),2021-10-18 14:53:52,10080,10080.0,100.0,39893,43200.0,92.0,100.0,1',24',1h,POINT (17.319 60.739),17.318611,60.738611,,bona
149,bork,,Germany,Borkum Fischerbalje,web,,4.35,12:48,3',5',German Federal Waterways and Shipping Administration ( Germany ) +Informationstechnikzentrum Bund ( Germany ),2010-05-04 12:40:04,10051,10080.0,100.0,41018,43200.0,95.0,100.0,1',3',5',POINT (6.749 53.557),6.749444,53.5575,,bork
150,bouc,,France,Boucau-Bayonne,ftp,,3.55,12:44,7',5',Service hydrographique et océanographique de la marine ( France ) +Service hydrographique et océanographique de la marine ( France ),2011-04-28 15:15:31,10035,10080.0,100.0,43110,43200.0,100.0,99.0,1',1',5',POINT (-1.515 43.527),-1.514829999999999,43.5273,,bouc
151,bouc2,,France,Boucau-Bayonne 2,SZFR01,FR094,3.55,12:44,7',6',Service hydrographique et océanographique de la marine ( France ),2014-10-09 14:37:01,10032,10080.0,100.0,43008,43200.0,100.0,100.0,1',5',6',POINT (-1.515 43.527),-1.514829999999999,43.5273,,bouc2
152,boul,,France,Boulogne-Sur-Mer,ftp,,4.35,12:44,7',5',Service hydrographique et océanographique de la marine ( France ) +Service hydrographique et océanographique de la marine ( France ),2010-04-01 00:00:07,10070,10080.0,100.0,43190,43200.0,100.0,100.0,1',2',5',POINT (1.577 50.727),1.57746,50.7275,,boul
153,boul2,,France,Boulogne-Sur-Mer 2,SZFR01,FR111,4.35,12:44,7',6',Service hydrographique et océanographique de la marine ( France ),2013-10-08 16:07:31,10056,10080.0,100.0,43020,43200.0,100.0,100.0,1',5',6',POINT (1.577 50.727),1.57746,50.7275,,boul2
154,bour,,UK,Bournemouth,ftp,,1.46,12:15,36',15',National Oceanography Centre ( UK ),2012-09-04 21:04:28,670,672.0,100.0,2689,2880.0,93.0,100.0,15',26',15',POINT (-1.87 50.71),-1.87,50.71,,bour
155,boye,,Chile,Boyeruca CL,SXCH40,ADC203CA,4.8,12:48,3',5',Servicio Hidrográfico y Oceanográfico de la Armada ( Chile ),2021-10-30 19:21:09,9585,10080.0,95.0,41260,43200.0,96.0,95.0,1',2',5',POINT (-72.058 -34.687),-72.05786,-34.6873055,,boye
156,boye2,,Chile,Boyeruca CL,web,,2.87,12:47,4',5',Servicio Hidrográfico y Oceanográfico de la Armada ( Chile ),2021-10-30 19:46:48,10080,10080.0,100.0,42040,43200.0,97.0,100.0,1',2',5',POINT (-72.058 -34.687),-72.05786,-34.6873055,,boye2
157,bozc,,Turkey,Bozcaada,bgan,BOZC,2.01,-down-,589d,1',Joint Research Centre ( Europe ) +Kandilli Observatory and Earthquake Research Institute ( Turkey ),2016-11-22 08:30:38,-down-,10080.0,0.0,-down-,,0.0,0.0,1',,1',POINT (26.076 39.836),26.075859,39.835741,,bozc
158,bozy,,Turkey,Bozyazi,web,,1.63,12:36,15',2',General Directorate of Mapping ( Turkey ) +Kandilli Observatory and Earthquake Research Institute ( Turkey ),2016-08-16 15:44:30,20120,20160.0,100.0,84760,86400.0,98.0,100.0,0.5',2',2',POINT (32.941 36.097),32.941310882568,36.09741973877,,bozy
159,bres,242,France,Brest,ftp,,5.51,12:45,6',5',Service hydrographique et océanographique de la marine ( France ) +Service hydrographique et océanographique de la marine ( France ),2008-12-12 00:01:34,10057,10080.0,100.0,43125,43200.0,100.0,100.0,1',1',5',POINT (-4.5 48.38),-4.5,48.38,,bres
160,bres2,,France,Labo2,SZFR01,FR0001,-999.0,2025-05-16 09:03,52d,6',Service hydrographique et océanographique de la marine ( France ) +Service hydrographique et océanographique de la marine ( France ),2021-10-04 12:59:06,,10080.0,0.0,,,0.0,0.0,1',,6',POINT (-4.495 48.409),-4.495,48.4086,,bres2
161,brid,,Barbados,Bridgetown Port,SOBR10,14004206,0.45,-down-,1707d,1h,Caribbean Institute for Meteorology & Hydrology ( Barbados ) +Coastal Zone Management Unit ( Barbados ) +International Tsunami Information Center Caribbean Office ( USA ),2013-05-10 12:54:54,-down-,1680.0,0.0,-down-,,0.0,0.0,6',,1h,POINT (-59.629 13.108),-59.629,13.108,,brid
162,brid2,,Barbados,Bridgetown Port,web,,3.39,12:48,3',1',Barbados Meteorological Services ( Barbados ) +International Tsunami Information Center Caribbean Office ( USA ),2023-10-19 18:04:17,10080,10080.0,100.0,43156,43200.0,100.0,100.0,1',3',1',POINT (-59.631 13.111),-59.6314139,13.1113555,,brid2
163,BRLT,,Italy,Barletta,bgan,IT-BRLT-00,0.44,12:49,1',1',Dipartimento Scienze della Terra e Geoambientali - Università di Bari ( Italy ),2024-07-05 15:27:46,59307,60359.0,98.0,254707,258683.0,98.0,97.0,0.167',1',1',POINT (16.29 41.333),16.28989,41.33256,,BRLT
164,brof,,Sweden,Brofjorden,web,,0.17,12:00,51',1h,Swedish Meteorological and Hydrological Institute ( Sweden ) +Swedish Maritime Administration ( Sweden ),2021-10-18 16:27:59,9085,10080.0,90.0,41292,43200.0,96.0,87.0,1',24',1h,POINT (11.405 58.336),11.404722,58.336111,,brof
165,brom,40,Australia,Broome AU,SZAU01,62650,6.58,12:47,4',3',National Tidal Centre/Australian Bureau of Meteorology ( Australia ),2007-12-05 22:50:00,10080,10080.0,100.0,43197,43200.0,100.0,100.0,1',2',3',POINT (122.219 -18.001),122.2186,-18.0008,,brom
166,brpt,,Hawaii,Barbers Point,SEPO40,35403732,3.84,12:47,4',5',University of Hawaii Sea Level Center ( USA ),2012-05-19 10:57:56,9550,10080.0,95.0,41600,43200.0,96.0,94.0,1',2',5',POINT (-158.119 21.322),-158.1193,21.3218,,brpt
167,brsk,,Netherlands,Breskens Handelshaven,web,,1.45,12:30,21',10',Rijkswaterstaat ( Netherlands ),2017-01-13 20:53:34,720,1008.0,71.0,4311,4320.0,100.0,100.0,10',14',10',POINT (3.548 51.401),3.547724554429999,51.4014003201,,brsk
168,brur,,Norway,Bruravik,web,,0.83,12:40,11',10',Norwegian Hydrographic Service ( Norway ),2023-06-29 11:21:56,1008,1008.0,100.0,4320,4320.0,100.0,100.0,10',3',10',POINT (6.894 60.492),6.893949,60.492094,,brur
169,bspe,,Barbados,Speightstown Jetty,web,,5.23,08:52,4h,1',Barbados Meteorological Services ( Barbados ) +International Tsunami Information Center Caribbean Office ( USA ),2023-10-19 18:04:17,10080,10080.0,100.0,43157,43200.0,100.0,100.0,1',239',1',POINT (-59.641 13.25),-59.640894,13.250253,,bspe
170,btny,,USA,Battery The NY,web,336670D4,0.98,12:45,6',6',National Ocean Service-NOAA ( USA ),2006-06-07 04:30:00,10080,10080.0,100.0,43141,43200.0,100.0,100.0,1',2',6',POINT (-74.02 40.7),-74.02,40.7,,btny
171,btny2,,USA,Battery The NY,SXXX03,336670D4,-3.28,12:39,12',6',National Ocean Service-NOAA ( USA ),2012-12-05 18:19:24,9474,10080.0,94.0,40794,43200.0,94.0,94.0,1',9',6',POINT (-74.02 40.7),-74.02,40.7,,btny2
172,buca,,Chile,Bucalemu CL,,,4.02,-down-,1346d,5',Servicio Hidrográfico y Oceanográfico de la Armada ( Chile ),2014-06-15 10:55:24,-down-,10080.0,0.0,-down-,,0.0,0.0,1',,5',POINT (-72.046 -34.639),-72.046235,-34.639379,,buca
173,buca2,,Chile,Bucalemu CL,web,,2.65,-down-,3161d,5',Servicio Hidrográfico y Oceanográfico de la Armada ( Chile ),2015-07-08 16:30:56,-down-,10080.0,0.0,-down-,,0.0,0.0,1',,5',POINT (-72.046 -34.639),-72.046235,-34.639379,,buca2
174,buca3,,Chile,Bucalemu CL,web,,4.13,-down-,1440d,1',Servicio Hidrográfico y Oceanográfico de la Armada ( Chile ),2017-06-23 15:53:06,-down-,10080.0,0.0,-down-,,0.0,0.0,1',,1',POINT (-72.046 -34.639),-72.046235,-34.639379,,buca3
175,bull,,Curaçao,Bullen Bay,SEPO40,3541C54C,8.92,12:46,5',5',Meteorological Department Curaçao ( Curaçao ) +University of Hawaii Sea Level Center ( USA ) +International Tsunami Information Center Caribbean Office ( USA ),2013-10-16 20:17:46,9890,10080.0,98.0,42300,43200.0,98.0,99.0,1',3',5',POINT (-69.02 12.187),-69.0196139,12.1873306,,bull
176,bupo,,Indonesia,Bungus Port,bgan,BUPO,1.45,-down-,1050d,1',Joint Research Centre ( Europe ) +Ministry of Maritime Affairs and Fisheries of the Republic of Indonesia ( Indonesia ),2020-07-07 09:10:02,-down-,10080.0,0.0,-down-,,0.0,0.0,1',,1',POINT (100.396 -1.03),100.3961908,-1.0296607,,bupo
177,busa,84,Korea,Busan,ftp,,1.01,12:12,39',1',Korea Hydrographic and Oceanographic Administration ( Korea ) +Korea Environmental Science & Technology Institute ( Korea ),2010-07-23 10:38:02,8640,10080.0,86.0,42246,43200.0,98.0,100.0,1',9',1',POINT (129.037 35.093),129.0375,35.093056,,busa
178,buve,170,Colombia,Buenaventura,ftp,,2.14,2025-05-24 23:18,44d,5',Dirección General Marítima ( Colombia ),2010-10-06 10:43:48,,5040.0,0.0,,,0.0,0.0,2',,5',POINT (-77.081 3.891),-77.0808,3.8906,,buve
179,buve2,170,Colombia,Buenaventura,SXCO41,15AA92C8,-999.0,2025-05-24 23:21,44d,5',Dirección General Marítima ( Colombia ),2013-05-14 16:29:00,,10080.0,0.0,,,0.0,0.0,1',,5',POINT (-77.081 3.891),-77.0808,3.8906,,buve2
180,buve3,170,Colombia,Buenaventura,SXCO41,6B004E92,,,,5',Dirección General Marítima ( Colombia ) +National Oceanography Centre ( UK ),2023-09-05 12:22:13,,,0.0,,,0.0,0.0,',,5',POINT (-77.262 3.833),-77.2621,3.8329,,buve3
181,CA02,,Italy,Cagliari,web,,0.26,09:55,3h,5',Istituto Superiore per la Protezione e la Ricerca Ambientale ( Italy ),2010-09-13 18:01:35,10071,10080.0,100.0,42324,43200.0,98.0,100.0,1',3',5',POINT (9.114 39.21),9.1142,39.2101,,CA02
182,cabc,,Belize,Carrie Bow Cay,SOBH10,777022C4,-2.41,2025-07-05 21:27,2d,5',Smithsonian Marine Station at Fort Pierce ( USA ) +International Tsunami Information Center Caribbean Office ( USA ),2016-04-14 15:53:48,,10080.0,0.0,80,43200.0,0.0,0.0,1',,5',POINT (-88.082 16.803),-88.08202,16.80283,,cabc
183,cabo,161,Mexico,Cabo San Lucas MX,SEMX03,93209686,25.17,-down-,2922d,15',Centro de Investigación Científica y de Educación Superior de Ensenada ( Mexico ) +University of Hawaii Sea Level Center ( USA ) +Centro de Investigación Científica y de Educación Superior de Ensenada ( Mexico ),2007-12-10 00:23:00,-down-,2016.0,0.0,-down-,,0.0,0.0,5',,15',POINT (-109.91 22.879),-109.91,22.87861,,cabo
184,cacb,,Cayman Islands,Cayman Brac,SOTI10,C790439E,0.77,-down-,783d,5',UK Hydrographic Office ( UK ) +OceanWise,2022-01-07 16:15:22,-down-,10080.0,0.0,-down-,,0.0,0.0,1',,5',POINT (-79.77 19.743),-79.769889,19.743211,,cacb
185,cadi,,Spain,Cadiz,bgan,CADI,3.07,2023-11-10 06:55,605d,1',Joint Research Centre ( Europe ) +Instituto Geográfico Nacional ( Spain ),2015-10-11 17:46:09,,10080.0,0.0,,,0.0,0.0,1',,1',POINT (-6.281 36.542),-6.280611999999999,36.54214,,cadi
186,cagb,,Cayman Islands,"Grand Cayman, Gun Bay",SOTI10,C7903BDC,2.41,2024-07-04 08:05,368d,5',UK Hydrographic Office ( UK ) +OceanWise,2022-01-07 16:08:42,,10080.0,0.0,,,0.0,0.0,1',,5',POINT (-81.089 19.312),-81.089491,19.312283,,cagb
187,cagt,,Cayman Islands,"Grand Cayman, George Town",SOTI10,C790350E,3.85,2024-01-27 01:50,527d,5',UK Hydrographic Office ( UK ) +OceanWise,2022-01-07 16:13:28,,10080.0,0.0,,,0.0,0.0,1',,5',POINT (-81.383 19.295),-81.383394,19.295086,,cagt
188,cala,,France,Calais,ftp,,3.87,12:44,7',5',Service hydrographique et océanographique de la marine ( France ) +Service hydrographique et océanographique de la marine ( France ),2009-10-22 23:56:11,10035,10080.0,100.0,43050,43200.0,100.0,99.0,1',2',5',POINT (1.868 50.969),1.86772,50.9694,,cala
189,cala2,,France,Calais 2,SZFR01,FR0055,3.84,12:48,3',6',Service hydrographique et océanographique de la marine ( France ),2015-02-18 18:36:46,10038,10080.0,100.0,43074,43200.0,100.0,100.0,1',6',6',POINT (1.868 50.969),1.86772,50.9694,,cala2
190,calc,,Cayman Islands,Little Cayman,SOTI10,C7904D4C,2.37,-down-,866d,5',UK Hydrographic Office ( UK ) +OceanWise,2022-01-07 16:16:48,-down-,10080.0,0.0,-down-,,0.0,0.0,1',,5',POINT (-80.104 19.668),-80.104108,19.667867,,calc
191,cald,,Chile,Caldera CL,SXCH40,ADC104C4,5.12,12:48,3',5',Servicio Hidrográfico y Oceanográfico de la Armada ( Chile ) +Servicio Hidrográfico y Oceanográfico de la Armada ( Chile ),2008-06-16 08:57:00,9630,10080.0,96.0,41470,43200.0,96.0,95.0,1',3',5',POINT (-70.825 -27.065),-70.82471944,-27.0646055,,cald
192,cald2,,Chile,Caldera CL,web,,4.63,12:47,4',5',Servicio Hidrográfico y Oceanográfico de la Armada ( Chile ) +Servicio Hidrográfico y Oceanográfico de la Armada ( Chile ),2013-03-18 17:40:25,10080,10080.0,100.0,43179,43200.0,100.0,100.0,1',3',5',POINT (-70.825 -27.065),-70.82471944,-27.0646055,,cald2
193,call,173,Perú,"Callao,La-Punta PE",SEPO40,354165B4,6.15,12:45,6',5',Dirección de Hidrografía y Navegación (Perú) +University of Hawaii Sea Level Center ( USA ),2008-06-27 17:02:00,9460,10080.0,94.0,40705,43200.0,94.0,94.0,1',2',5',POINT (-77.167 -12.069),-77.1668,-12.069,,call
194,calq,,Saint Vincent & Grenadines,Calliaqua Coast Guard Base,SOVG10,53500294,1.75,12:48,3',5',National Emergency Management Office ( Saint Vincent & Grenadines ) +International Tsunami Information Center Caribbean Office ( USA ),2013-12-12 12:29:19,10045,10080.0,100.0,43015,43200.0,100.0,100.0,1',2',5',POINT (-61.196 13.13),-61.1955,13.129912,,calq
195,camt,,Mexico,Lerma Campeche,ftp,,1.95,2025-07-03 15:34,4d,10',Universidad Nacional Autónoma de México ( Mexico ) +International Tsunami Information Center Caribbean Office ( USA ),2016-10-14 22:46:59,,10080.0,0.0,1050,43200.0,2.0,0.0,1',,10',POINT (-90.595 19.812),-90.594916,19.811985,,camt
196,camu,,Puerto Rico,Caja de Muertos,SXXX03,,-2.52,-down-,2002d,6',Universidad de Puerto Rico ( Puerto Rico ) +International Tsunami Information Center Caribbean Office ( USA ),2015-04-14 10:44:00,-down-,10080.0,0.0,-down-,,0.0,0.0,1',,6',POINT (-66.528 17.888),-66.528256,17.887533,,camu
197,caph,,Haïti,Cap-Haïtien,SEHA10,3540C7B6,13.71,2023-12-26 19:18,559d,5',Service Maritime et de Navigation d´Haiti ( Haïti ) +International Tsunami Information Center Caribbean Office ( USA ),2011-12-02 11:42:54,,10080.0,0.0,,,0.0,0.0,1',,5',POINT (-72.193 19.759),-72.193371,19.759303,,caph
198,cara,,Sénégal,Carabane,ftp,18606392,,-down-,,15',Agence Nationale de l'Aviation Civile et de la Météorologie ( Senegal ) +State Meteorological Agency ( Spain ),2015-09-04 21:40:07,-down-,,0.0,-down-,,0.0,0.0,',,15',POINT (-16.698 12.561),-16.6984583,12.5610361,,cara
199,carb,,Spain,Carboneras,ftp,,0.27,12:46,5',4',Puertos del Estado ( Spain ),2014-01-16 15:41:43,8591,10080.0,85.0,40244,43200.0,93.0,100.0,1',5',4',POINT (-1.9 36.974),-1.899589999999999,36.9743,,carb
200,carg,,Spain,Cartagena,bgan,CARG,1.62,-down-,1162d,1',Joint Research Centre ( Europe ) +Instituto Geográfico Nacional ( Spain ),2015-10-15 14:18:42,-down-,10080.0,0.0,-down-,,0.0,0.0,1',,1',POINT (-0.98 37.57),-0.9799999999999991,37.57,,carg
201,cart,207,Colombia,Cartagena,SXCO41,15A06DCC,0.22,12:34,17',15',Dirección General Marítima ( Colombia ) +International Tsunami Information Center Caribbean Office ( USA ),2013-01-29 17:56:10,10045,10080.0,100.0,43005,43200.0,100.0,100.0,1',4',15',POINT (-75.537 10.391),-75.5369,10.3914,,cart
202,casc,246,Portugal,Cascais,socket,,1.0,12:50,1',0.0833',Direção-Geral do Território ( Portugal ),2008-06-01 00:02:00,95055,121008.0,79.0,445156,518607.0,86.0,95.0,0.0833',1',0.0833',POINT (-9.415 38.693),-9.415384,38.693158,,casc
203,cast,330,Ireland,Castletownbere,ftp,,1.02,2025-03-14 10:00,115d,1h,"Department of Agriculture, Fisheries and Food ( Ireland ) +Marine Institute ( Ireland )",2008-06-11 10:00:00,,672.0,0.0,,,0.0,0.0,15',,1h,POINT (-9.903 51.65),-9.9034,51.6496,,cast
204,cazul,,Perú,"Cerro Azul, Cañete PE",web,,2.14,11:42,1h,5',Dirección de Hidrografía y Navegación (Perú),2022-09-29 16:21:35,2622,10080.0,26.0,14672,43200.0,34.0,0.0,1',,5',POINT (-76.485 -13.026),-76.48527,-13.02583,,cazul
205,cbmd,,USA,Cambridge MD,web,3366E5B6,0.53,12:36,15',6',National Ocean Service-NOAA ( USA ),2006-06-07 04:30:00,1680,1680.0,100.0,7191,7200.0,100.0,100.0,6',11',6',POINT (-76.068 38.573),-76.0683,38.5733,,cbmd
206,cbmd2,,USA,Cambridge MD,SXXX03,3366E5B6,-1.94,12:45,6',6',National Ocean Service-NOAA ( USA ),2012-12-05 18:19:24,9546,10080.0,95.0,40890,43200.0,95.0,95.0,1',3',6',POINT (-76.068 38.573),-76.0683,38.5733,,cbmd2
207,cbva,,USA,Chesapeake Bay VA,SXXX50,was3358D234,,,,6',National Ocean Service-NOAA ( USA ),2006-06-07 04:30:00,,,0.0,,,0.0,0.0,',,6',POINT (-76.113 36.967),-76.113,36.967,,cbva
208,ccar,,Mexico,"Ciudad del Cármen, Camp.",ftp,,1.38,12:29,22',10',Universidad Nacional Autónoma de México ( Mexico ) +International Tsunami Information Center Caribbean Office ( USA ),2010-08-26 17:14:42,6855,10080.0,68.0,33175,43200.0,77.0,80.0,1',16',10',POINT (-91.836 18.636),-91.83615,18.63605,,ccar
209,ccar2,,Mexico,Ciudad del Cármen2,,,,,,1h,Universidad Nacional Autónoma de México ( Mexico ),2020-07-01 00:00:22,,,0.0,,,0.0,0.0,',,1h,POINT (-91.836 18.636),-91.83615,18.63605,,ccar2
210,cctx,,USA,"Corpus Christi, TX",web,336943DC,0.79,-down-,1737d,6',National Ocean Service-NOAA ( USA ),2009-02-06 00:00:00,-down-,10080.0,0.0,-down-,,0.0,0.0,1',,6',POINT (-97.217 27.58),-97.2167,27.58,,cctx
211,cctx2,,USA,"Corpus Christi, TX",SXXX03,336943DC,-8.2,-down-,1737d,6',National Ocean Service-NOAA ( USA ),2012-12-05 18:19:24,-down-,10080.0,0.0,-down-,,0.0,0.0,1',,6',POINT (-97.217 27.58),-97.2167,27.58,,cctx2
212,cdtt,,Trinidad & Tobago,Cedros Bay,SOTD10,A9C013C0,2.62,-down-,1490d,1h,"Land and Surveys Division, Hydrographic Unit ( Trinidad and Tobago ) +Caribbean Planning for Adaptation to Climate Change ( Trinidad and Tobago ) +International Tsunami Information Center Caribbean Office ( USA )",2013-06-28 10:23:22,-down-,1008.0,0.0,-down-,,0.0,0.0,10',,1h,POINT (-61.865 10.094),-61.8654833,10.0940528,,cdtt
213,cedr,,Mexico,Isla de Cedros,SOMX10,C1C027F6,0.01,-down-,4278d,1h,Centro de Investigación Científica y de Educación Superior de Ensenada ( Mexico ),2013-05-26 00:21:41,-down-,5040.0,0.0,-down-,,0.0,0.0,2',,1h,POINT (-115.183 28.096),-115.1832,28.096,,cedr
214,ceib,,Honduras,La Ceiba Cabotaje Harbor,SOHO10,50C46088,1.01,-down-,1227d,1h,Comision Permanente de Contingencias ( Honduras ) +International Tsunami Information Center Caribbean Office ( USA ),2015-05-04 14:51:01,-down-,1008.0,0.0,-down-,,0.0,0.0,10',,1h,POINT (-86.76 15.79),-86.76,15.79,,ceib
215,cent,,France,Centuri,ftp,,0.58,12:45,6',5',Service hydrographique et océanographique de la marine ( France ),2010-11-03 17:21:39,10055,10080.0,100.0,43078,43200.0,100.0,100.0,1',2',5',POINT (9.35 42.967),9.350146,42.966904,,cent
216,cent2,,France,Centuri2,SZFR01,FR0807,0.66,12:44,7',6',Service hydrographique et océanographique de la marine ( France ) +Service hydrographique et océanographique de la marine ( France ),2011-01-10 21:15:33,10044,10080.0,100.0,42810,43200.0,99.0,100.0,1',5',6',POINT (9.35 42.967),9.350146,42.966904,,cent2
217,CETR,,Italy,Cetraro,web,,0.06,12:50,1',0.25',Istituto Superiore per la Protezione e la Ricerca Ambientale ( Italy ),2022-10-03 10:31:39,40307,40320.0,100.0,157705,172800.0,91.0,100.0,0.25',,0.25',POINT (15.92 39.527),15.920171,39.52677,,CETR
218,ceut,249,Spain,Ceuta,web,,1.32,2024-09-24 04:59,286d,1d,Instituto Español de Oceanografía ( Spain ),2008-08-18 00:00:00,,1008.0,0.0,,,0.0,0.0,10',,1d,POINT (-5.317 35.9),-5.3166,35.9,,ceut
219,ceut1,,Spain,Ceuta,bgan,CEUT1,0.87,2023-11-26 02:43,589d,1',Joint Research Centre ( Europe ) +Instituto Geográfico Nacional ( Spain ),2017-09-07 22:55:56,,10080.0,0.0,,,0.0,0.0,1',,1',POINT (-5.312 35.896),-5.311585199999999,35.8959058,,ceut1
220,CF06,,Italy,Carloforte,web,,0.23,12:47,4',5',Istituto Superiore per la Protezione e la Ricerca Ambientale ( Italy ),2008-09-27 07:30:00,10080,10080.0,100.0,42964,43200.0,99.0,100.0,1',3',5',POINT (8.308 39.144),8.3081,39.1436,,CF06
221,chab,337,Iran,Chabahar,SXXX32,366C76AC,24.98,-down-,2034d,15',Hydrographic Department of the National Cartographic Center ( Iran ) +GeoForschungsZentrum ( Germany ),2007-10-31 09:01:00,-down-,10080.0,0.0,-down-,,0.0,0.0,1',,15',POINT (60.603 25.296),60.603,25.2958,,chab
222,chala,,Perú,"Chala,Arequipa,PE",web,,0.95,2025-07-03 20:27,4d,10',Dirección de Hidrografía y Navegación (Perú),2022-09-29 16:53:22,,10080.0,0.0,1084,43200.0,3.0,0.0,1',,10',POINT (-74.248 -15.866),-74.24805,-15.8661,,chala
223,chan,,Perú,"Chancay, Lima PE",SEPO40,D3D067A2,,-down-,,5',Dirección de Hidrografía y Navegación (Perú),2025-05-14 06:14:37,-down-,,0.0,-down-,,0.0,0.0,',,5',POINT (-77.273 -11.585),-77.2732,-11.5849,,chan
224,char,,USA,"Charleston, OR",web,336874BC,0.05,12:44,7',6',National Ocean Service-NOAA ( USA ),2008-06-21 00:00:00,10064,10080.0,100.0,43095,43200.0,100.0,100.0,1',5',6',POINT (-124.322 43.345),-124.3217,43.345,,char
225,char2,,USA,"Charleston, OR",SXXX03,336874BC,-3.15,12:44,7',6',National Ocean Service-NOAA ( USA ),2012-12-05 18:19:24,9396,10080.0,93.0,40890,43200.0,95.0,92.0,1',7',6',POINT (-124.322 43.345),-124.3217,43.345,,char2
226,chat,,Saint Vincent & Grenadines,Chateaubelair,SOVG10,53500C46,0.01,12:45,6',5',National Emergency Management Office ( Saint Vincent & Grenadines ) +Pacific Tsunami Warning Center ( USA ),2021-09-10 22:16:55,9960,10080.0,99.0,42515,43200.0,98.0,99.0,1',3',5',POINT (-61.241 13.291),-61.2406,13.2911,,chat
227,chenn,34,India,Chennai,ftp,43280,0.78,12:21,30',10',Indian National Centre for Ocean Information Services ( India ),2011-07-06 14:20:18,6744,10080.0,67.0,32488,43200.0,75.0,79.0,1',16',10',POINT (80.3 13.1),80.3,13.1,,chenn
228,cher,,France,Cherbourg,ftp,,2.73,12:45,6',5',Service hydrographique et océanographique de la marine ( France ) +Service hydrographique et océanographique de la marine ( France ),2008-12-20 12:03:18,10040,10080.0,100.0,43035,43200.0,100.0,100.0,1',1',5',POINT (-1.63 49.65),-1.629999999999999,49.65,,cher
229,cher2,,France,Cherbourg 2,SZFR01,FR013,4.62,2025-06-20 17:03,17d,6',Service hydrographique et océanographique de la marine ( France ),2014-11-25 11:15:46,,10080.0,0.0,12,43200.0,0.0,0.0,1',,6',POINT (-1.63 49.65),-1.629999999999999,49.65,,cher2
230,chia,,Mexico,Puerto Chiapas/Madero,SOMX10,0100A15A,6.27,12:41,10',5',Universidad Nacional Autónoma de México ( Mexico ),2014-05-19 10:25:09,9990,10080.0,99.0,42905,43200.0,99.0,99.0,1',6',5',POINT (-92.401 14.712),-92.4013833,14.7123,,chia
231,chij,103,Japan,Chichijima,SWJP40,CHICHIJIMA,2.3,12:39,12',10',Japan Meteorological Agency ( Japan ),2012-03-21 10:05:48,10030,10080.0,100.0,43110,43200.0,100.0,100.0,1',7',10',POINT (142.19 27.09),142.19,27.09,,chij
232,chim2,,Perú,"Chimbote,Ancash PE",SEPO40,D3D037DE,1.6,-down-,5',5',Dirección de Hidrografía y Navegación (Perú),2025-05-14 21:34:15,-down-,10080.0,30.0,-down-,,0.0,90.0,1',2',5',POINT (-78.613 -9.076),-78.6127,-9.0762,,chim2
233,chimb,,Perú,"Chimbote,Ancash PE",web,,2.21,2024-11-04 20:03,245d,10',Dirección de Hidrografía y Navegación (Perú),2022-09-29 16:11:24,,10080.0,0.0,,,0.0,0.0,1',,10',POINT (-78.612 -9.076),-78.6125,-9.0761,,chimb
234,chit,,New Zealand,"Owenga, Chatham Island",SZNZ01,CHIT,2.82,12:47,4',3',Land Information New Zealand ( New Zealand ),2009-01-13 13:04:00,10079,10080.0,100.0,43094,43200.0,100.0,100.0,1',4',3',POINT (-176.369 -44.025),-176.3688,-44.0247,,chit
235,chnr,,Chile,Chañaral CL,SXCH40,ADC296A8,4.41,12:44,7',5',Servicio Hidrográfico y Oceanográfico de la Armada ( Chile ) +Servicio Hidrográfico y Oceanográfico de la Armada ( Chile ),2012-06-29 21:28:07,9490,10080.0,94.0,40750,43200.0,94.0,93.0,1',4',5',POINT (-70.634 -26.352),-70.633759,-26.351758,,chnr
236,chnr2,,Chile,Chañaral CL,web,,3.89,12:43,7',5',Servicio Hidrográfico y Oceanográfico de la Armada ( Chile ) +Servicio Hidrográfico y Oceanográfico de la Armada ( Chile ),2013-03-18 17:40:25,9794,10080.0,97.0,41736,43200.0,97.0,97.0,1',2',5',POINT (-70.634 -26.352),-70.633759,-26.351758,,chnr2
237,chrl,,Trinidad & Tobago,Charlotteville,SOTD10,A9C043BC,1.71,-down-,3247d,1h,Caribbean Planning for Adaptation to Climate Change ( Trinidad and Tobago ) +International Tsunami Information Center Caribbean Office ( USA ),2013-05-10 13:55:19,-down-,1008.0,0.0,-down-,,0.0,0.0,10',,1h,POINT (-60.55 11.317),-60.55,11.316667,,chrl
238,chrp,,USA,Cherry Point WA,web,336BB6AC,1.19,12:46,5',6',National Ocean Service-NOAA ( USA ),2006-06-07 04:30:00,10078,10080.0,100.0,43110,43200.0,100.0,100.0,1',3',6',POINT (-122.758 48.863),-122.758,48.863,,chrp
239,chrp2,,USA,Cherry Point WA,SXXX03,336BB6AC,-6.89,12:46,5',6',National Ocean Service-NOAA ( USA ),2012-12-05 18:19:24,9630,10080.0,96.0,41153,43200.0,95.0,95.0,1',4',6',POINT (-122.758 48.863),-122.758,48.863,,chrp2
240,chrs,47,Australia,Christmas Island AU,SZIO01,46290,0.88,12:47,4',3',National Tidal Centre/Australian Bureau of Meteorology ( Australia ),2007-12-12 10:14:00,10080,10080.0,100.0,43194,43200.0,100.0,100.0,1',2',3',POINT (105.669 -10.429),105.6693,-10.4294,,chrs
241,chst,,New Zealand,Charleston,SZNZ01,CHST,1.87,12:47,4',3',Land Information New Zealand ( New Zealand ),2019-04-01 14:14:28,10079,10080.0,100.0,43094,43200.0,100.0,100.0,1',4',3',POINT (171.434 -41.903),171.4338,-41.9032,,chst
242,chtt,36,Bangladesh,Chittagong,SZBW40,065079CC,3.45,2025-05-16 02:24,52d,6',"Survey of Bangladesh, Ministry of Defense ( Bangladesh ) +University of Hawaii Sea Level Center ( USA )",2007-11-24 18:40:00,,3360.0,0.0,,,0.0,0.0,3',,6',POINT (91.825 22.333),91.825,22.3333,,chtt
243,chuu,116,Micronesia,Chuuk,SZXX01,300434063442310,4.28,12:44,7',5',Korea-South Pacific Ocean Research Center ( Korea ) +University of Hawaii Sea Level Center ( USA ),2020-08-10 18:00:54,9280,10080.0,92.0,39235,43200.0,91.0,92.0,1',5',5',POINT (151.898 7.454),151.8982417,7.453683299999999,,chuu
244,CI20,,Italy,Civitavecchia,web,,-0.01,12:48,3',5',Istituto Superiore per la Protezione e la Ricerca Ambientale ( Italy ),2013-12-17 14:35:57,10078,10080.0,100.0,42873,43200.0,99.0,100.0,1',3',5',POINT (11.79 42.094),11.789647222222222,42.09395833333333,,CI20
245,cila,291,Indonesia,Cilacap2,,ID-CILA-00,0.01,-down-,2917d,5',Geospacial Agency of Indonesia ( Indonesia ) +University of Hawaii Sea Level Center ( USA ),2009-05-20 03:48:00,-down-,10080.0,0.0,-down-,,0.0,0.0,1',,5',POINT (109 -7.75),109.0,-7.75,,cila
246,cili,291,Indonesia,Cilacap,SZXX01,300434067156900,3.33,12:44,7',5',Geospacial Agency of Indonesia ( Indonesia ) +University of Hawaii Sea Level Center ( USA ),2007-11-24 18:30:00,9225,10080.0,92.0,38545,43200.0,89.0,92.0,1',5',5',POINT (109 -7.75),109.0,-7.75,,cili
247,ciut,,Spain,Ciutadella,bgan,CIUT,0.27,2023-11-24 18:08,591d,1',Joint Research Centre ( Europe ) +Instituto Geográfico Nacional ( Spain ),2017-10-26 09:00:42,,10080.0,0.0,,,0.0,0.0,1',,1',POINT (3.828 39.988),3.828154,39.987588,,ciut
248,clst,,Mexico,"Celestun, Yuc.",ftp,,2.12,2025-07-03 15:21,4d,10',Universidad Nacional Autónoma de México ( Mexico ) +International Tsunami Information Center Caribbean Office ( USA ),2010-08-26 17:04:55,,10080.0,0.0,1050,43200.0,2.0,0.0,1',,10',POINT (-90.405 20.865),-90.405121,20.864506,,clst
249,cmet,,Chile,Caleta Meteoro CL,SXCH40,140204F8,2.02,12:44,7',15',Servicio Hidrográfico y Oceanográfico de la Armada ( Chile ) +Servicio Hidrográfico y Oceanográfico de la Armada ( Chile ),2011-10-18 17:17:15,9750,10080.0,97.0,41835,43200.0,97.0,97.0,1',2',15',POINT (-74.072 -52.961),-74.072156,-52.961019,,cmet
250,cmet3,,Chile,Caleta Meteoro CL,web,,1.52,12:47,4',1',Servicio Hidrográfico y Oceanográfico de la Armada ( Chile ) +Servicio Hidrográfico y Oceanográfico de la Armada ( Chile ),2013-11-25 20:50:00,10076,10080.0,100.0,42516,43200.0,98.0,100.0,1',3',1',POINT (-74.072 -52.961),-74.072156,-52.961019,,cmet3
251,cmnj,,USA,Cape May NJ,web,335D53E0,1.13,12:45,6',6',National Ocean Service-NOAA ( USA ),2008-06-21 00:00:00,10080,10080.0,100.0,43153,43200.0,100.0,100.0,1',2',6',POINT (-74.96 38.968),-74.96,38.9683,,cmnj
252,cmnj2,,USA,Cape May NJ,SXXX03,335D53E0,-4.15,12:45,6',6',National Ocean Service-NOAA ( USA ),2012-12-05 18:19:24,9558,10080.0,95.0,40944,43200.0,95.0,93.0,1',4',6',POINT (-74.96 38.968),-74.96,38.9683,,cmnj2
253,cnme,,USA,CutlerNavalBase ME,web,3354305A,0.77,-down-,1815d,6',National Ocean Service-NOAA ( USA ),2008-06-21 00:00:00,-down-,10080.0,0.0,-down-,,0.0,0.0,1',,6',POINT (-67.3 44.64),-67.3,44.64,,cnme
254,cocb,46,Australia,Cocos Island AU,SZIO01,46280,-999.0,12:47,4',3',National Tidal Centre/Australian Bureau of Meteorology ( Australia ),2007-12-05 22:50:00,10080,10080.0,100.0,43194,43200.0,100.0,100.0,1',2',3',POINT (96.892 -12.117),96.8919,-12.1167,,cocb
255,coch,32,India,Cochin,ftp,43357,0.89,11:48,1h,10',Indian National Centre for Ocean Information Services ( India ),2011-08-02 16:12:52,720,10080.0,7.0,15311,43200.0,35.0,4.0,1',19',10',POINT (76.26 9.96),76.26,9.96,,coch
256,cocos,,Costa Rica,Cocos Island,SEPO40,3542E4AE,3.29,12:40,11',5',"Universidad Nacional Costa Rica, SINAMOT ( Costa Rica ) +University of Hawaii Sea Level Center ( USA )",2018-03-16 00:22:19,10010,10080.0,99.0,42930,43200.0,99.0,99.0,1',2',5',POINT (-87.048 5.556),-87.04783,5.556083,,cocos
257,cois,,Nicaragua,Corn Island,SXXX50,22178120,2.9,-down-,1092d,1h,Instituto Nicaragüense de Estudios Territoriales - Hydrological Unit ( Nicaragua ) +International Tsunami Information Center Caribbean Office ( USA ),2014-10-06 10:46:05,-down-,2016.0,0.0,-down-,,0.0,0.0,5',,1h,POINT (-83.068 12.327),-83.0677778,12.3272222,,cois
258,colb,33,Sri Lanka,Colombo,SXXX33,22373340,5.7,-down-,1539d,15',National Aquatic Resources Research and Development Agency ( Sri Lanka ) +University of Hawaii Sea Level Center ( USA ),2007-12-04 15:52:00,-down-,1680.0,0.0,-down-,,0.0,0.0,6',,15',POINT (79.85 6.95),79.85,6.95,,colb
259,coli,,Chile,Coliumo CL,SXCH40,ADC210BC,5.63,12:46,5',5',Servicio Hidrográfico y Oceanográfico de la Armada ( Chile ),2018-08-20 17:00:24,9400,10080.0,93.0,40899,43200.0,95.0,94.0,1',3',5',POINT (-72.957 -36.538),-72.957142,-36.53797,,coli
260,coli2,,Chile,Coliumo,web,,3.22,12:45,5',5',Servicio Hidrográfico y Oceanográfico de la Armada ( Chile ),2020-04-16 23:32:12,10080,10080.0,100.0,43180,43200.0,100.0,100.0,1',2',5',POINT (-72.957 -36.538),-72.957142,-36.53797,,coli2
261,colo,33,Sri Lanka,Colombo,SWIO40,0650018E,0.93,12:45,6',15',National Aquatic Resources Research and Development Agency ( Sri Lanka ) +University of Hawaii Sea Level Center ( USA ),2006-06-21 17:21:00,10065,10080.0,100.0,43125,43200.0,100.0,100.0,1',2',15',POINT (79.85 6.941),79.8503833,6.940599999999999,,colo
262,como,,Comores,Comores,SXXX32,166AC436,7.81,-down-,1712d,15',+GeoForschungsZentrum ( Germany ),2010-12-06 12:02:51,-down-,10080.0,0.0,-down-,,0.0,0.0,1',,15',POINT (43.248 -11.704),43.24809444,-11.7035,,como
263,conc,,France,Concarneau,ftp,,4.01,12:45,6',5',Service hydrographique et océanographique de la marine ( France ) +Service hydrographique et océanographique de la marine ( France ),2010-02-03 00:00:21,10055,10080.0,100.0,43045,43200.0,100.0,100.0,1',1',5',POINT (-3.907 47.874),-3.907379999999999,47.8737,,conc
264,conc2,,France,Concarneau 2,SZFR01,FR160,4.02,12:47,4',6',Service hydrographique et océanographique de la marine ( France ) +Service hydrographique et océanographique de la marine ( France ),2014-07-24 14:33:32,9898,10080.0,98.0,42141,43200.0,98.0,99.0,1',5',6',POINT (-3.907 47.874),-3.907379999999999,47.8737,,conc2
265,cons2,,Chile,Constitucion CL,web,,5.55,12:45,5',5',Servicio Hidrográfico y Oceanográfico de la Armada ( Chile ) +Servicio Hidrográfico y Oceanográfico de la Armada ( Chile ),2013-03-18 17:40:25,7987,10080.0,79.0,35316,43200.0,82.0,100.0,1',9',5',POINT (-72.457 -35.356),-72.457031,-35.355725,,cons2
266,const,,Chile,Constitucion CL,SXCH40,ADC154B8,5.42,12:45,6',5',Servicio Hidrográfico y Oceanográfico de la Armada ( Chile ) +Servicio Hidrográfico y Oceanográfico de la Armada ( Chile ),2010-11-04 04:41:32,8935,10080.0,89.0,36560,43200.0,85.0,91.0,1',3',5',POINT (-72.457 -35.356),-72.457031,-35.355725,,const
267,coqu,,Chile,Coquimbo CL,SXCH40,ADC117B2,4.58,12:48,3',5',Servicio Hidrográfico y Oceanográfico de la Armada ( Chile ) +Servicio Hidrográfico y Oceanográfico de la Armada ( Chile ),2008-06-16 08:30:00,9670,10080.0,96.0,41525,43200.0,96.0,95.0,1',3',5',POINT (-71.335 -29.95),-71.335258,-29.950139,,coqu
268,coqu2,,Chile,Coquimbo CL,web,,4.08,12:47,4',5',Servicio Hidrográfico y Oceanográfico de la Armada ( Chile ) +Servicio Hidrográfico y Oceanográfico de la Armada ( Chile ),2013-03-18 17:40:25,10079,10080.0,100.0,43174,43200.0,100.0,100.0,1',2',5',POINT (-71.335 -29.95),-71.335258,-29.950139,,coqu2
269,cor2,243,Spain,Acoruna,ftp,,3.65,12:47,4',4',Puertos del Estado ( Spain ),2014-01-16 15:41:43,8594,10080.0,85.0,40283,43200.0,93.0,100.0,1',3',4',POINT (-8.389 43.357),-8.38938,43.35727,,cor2
270,cord,,USA,Cordova AK,web,335FA690,0.67,12:38,13',6',National Ocean Service-NOAA ( USA ),2008-06-21 00:00:00,8393,10080.0,83.0,35865,43200.0,83.0,83.0,1',10',6',POINT (-145.753 60.558),-145.753,60.558,,cord
271,cord2,,USA,Cordova AK,SXXX03,335FA690,-5.35,2024-09-05 19:03,305d,6',National Ocean Service-NOAA ( USA ),2012-12-05 18:19:24,,10080.0,0.0,,,0.0,0.0,1',,6',POINT (-145.753 60.558),-145.753,60.558,,cord2
272,corf,,Greece,"Kerkyra, Ionian Islands",bgan,GR-CORF-00,0.01,09:52,3h,1',National Observatory of Athens ( Greece ),2018-10-29 21:34:42,9969,10080.0,99.0,41247,43200.0,95.0,100.0,1',19',1',POINT (19.91 39.79),19.9099,39.7902,,corf
273,cori,,Nicaragua,Puerto Corinto,SXXX50,050284CA,0.45,-down-,843d,1h,Instituto Nicaragüense de Estudios Territoriales - Hydrological Unit ( Nicaragua ),2014-10-06 10:31:48,-down-,1008.0,0.0,-down-,,0.0,0.0,10',,1h,POINT (-87.168 12.483),-87.1675,12.4833333,,cori
274,corn,,Greece,"Corinth, Peloponnese",bgan,GR-CORN-00,0.01,12:51,,1',National Observatory of Athens ( Greece ),2015-12-15 21:22:04,10040,10080.0,100.0,35891,43200.0,83.0,100.0,1',,1',POINT (22.936 37.945),22.9365,37.9452,,corn
275,corr,,Chile,Corral CL,SXCH40,14066424,5.67,12:44,7',5',Servicio Hidrográfico y Oceanográfico de la Armada ( Chile ) +Servicio Hidrográfico y Oceanográfico de la Armada ( Chile ),2008-06-16 07:42:00,9045,10080.0,90.0,38480,43200.0,89.0,88.0,1',5',5',POINT (-73.427 -39.887),-73.42748,-39.886595,,corr
276,corr2,,Chile,Corral CL,web,,5.24,12:45,6',5',Servicio Hidrográfico y Oceanográfico de la Armada ( Chile ) +Servicio Hidrográfico y Oceanográfico de la Armada ( Chile ),2013-03-18 17:40:25,10080,10080.0,100.0,43157,43200.0,100.0,100.0,1',1',5',POINT (-73.427 -39.887),-73.42748,-39.886595,,corr2
277,coru,243,Spain,La Coruña,web,,3.94,2024-03-20 07:51,474d,1d,Instituto Español de Oceanografía ( Spain ),2008-08-18 00:00:00,,2016.0,0.0,,,0.0,0.0,5',,1d,POINT (-8.4 43.367),-8.4,43.3666,,coru
278,cove,,Colombia,Coveñas,ftp,,0.45,2025-07-05 13:56,2d,15',Dirección General Marítima ( Colombia ) +International Tsunami Information Center Caribbean Office ( USA ),2015-08-25 00:13:28,5138,10080.0,51.0,39525,43200.0,91.0,0.0,1',,15',POINT (-75.69 9.41),-75.69,9.41,,cove
279,cpit,,New Zealand,Castlepoint,SZNZ01,CPIT,2.86,12:47,4',3',Land Information New Zealand ( New Zealand ),2010-01-15 11:32:00,10079,10080.0,100.0,43094,43200.0,100.0,100.0,1',4',3',POINT (176.232 -40.899),176.2316763,-40.89929,,cpit
280,cpla,,USA,"Calcasieu Pass, LA",web,3368C732,0.66,12:45,6',6',National Ocean Service-NOAA ( USA ),2009-02-06 00:00:00,10080,10080.0,100.0,43133,43200.0,100.0,100.0,1',2',6',POINT (-93.343 29.768),-93.3429,29.7682,,cpla
281,cpla2,,USA,"Calcasieu Pass, LA",SXXX03,3368C732,1.41,2025-07-04 16:21,3d,6',National Ocean Service-NOAA ( USA ),2012-12-05 18:19:24,,10080.0,0.0,750,43200.0,2.0,0.0,1',,6',POINT (-93.343 29.768),-93.3429,29.7682,,cpla2
282,CR08,,Italy,Crotone,web,,0.13,12:48,3',5',Istituto Superiore per la Protezione e la Ricerca Ambientale ( Italy ),2013-12-17 14:35:57,9892,10080.0,98.0,41968,43200.0,97.0,92.0,1',3',5',POINT (17.137 39.084),17.137055555556,39.083580555556,,CR08
283,crbc,,Canada,Campbell River,SXAK50,CD402BD6,2.2,12:48,3',5',Fisheries and Oceans Canada ( Canada ),2016-03-01 12:54:51,9525,10080.0,94.0,40810,43200.0,94.0,95.0,1',,5',POINT (-125.25 50.04),-125.25,50.04,,crbc
284,cres,,USA,Crescent City CA,web,33622592,0.16,12:41,10',6',National Ocean Service-NOAA ( USA ),2008-06-21 00:00:00,10049,10080.0,100.0,43013,43200.0,100.0,100.0,1',7',6',POINT (-124.183 41.745),-124.183,41.745,,cres
285,cres2,,USA,Crescent City CA,SXXX03,33622592,-3.59,12:41,10',6',National Ocean Service-NOAA ( USA ),2012-12-05 18:19:24,9420,10080.0,93.0,40428,43200.0,94.0,96.0,1',6',6',POINT (-124.183 41.745),-124.183,41.745,,cres2
286,crnl,,Chile,Coronel CL,SXCH40,ADC1C1DA,5.28,12:46,5',5',Servicio Hidrográfico y Oceanográfico de la Armada ( Chile ) +Servicio Hidrográfico y Oceanográfico de la Armada ( Chile ),2012-08-08 16:54:40,9655,10080.0,96.0,41270,43200.0,96.0,96.0,1',4',5',POINT (-73.152 -37.029),-73.151731,-37.028605,,crnl
287,crnl2,,Chile,Coronel CL,web,,4.89,12:47,4',5',Servicio Hidrográfico y Oceanográfico de la Armada ( Chile ) +Servicio Hidrográfico y Oceanográfico de la Armada ( Chile ),2013-03-18 17:40:25,10070,10080.0,100.0,43180,43200.0,100.0,100.0,1',2',5',POINT (-73.152 -37.029),-73.151731,-37.028605,,crnl2
288,crom,,UK,Cromer,ftp,,2.72,12:15,36',15',National Oceanography Centre ( UK ),2012-09-04 21:04:28,672,672.0,100.0,2631,2880.0,91.0,100.0,15',26',15',POINT (1.3 52.93),1.3,52.93,,crom
289,csta,,Romania,Constanta,ftp,,-1.25,-down-,1613d,1',National Institute for Marine Research and Development ( Romania ) +Ministry of the Environment and Forests ( Romania ),2011-05-17 22:31:00,-down-,40320.0,0.0,-down-,,0.0,0.0,0.25',,1',POINT (28.6 44.16),28.6,44.16,,csta
290,csta2,,Romania,Constanta2,web,,-7.47,12:52,-1',5',National institute for Earth Physics ( Romania ),2015-12-05 09:00:12,10840,60480.0,18.0,154809,259199.0,60.0,58.0,0.166667',,5',POINT (28.672 44.148),28.672,44.1475,,csta2
291,csta3,,Romania,Constanta,web,,2.88,-down-,684d,5',National institute for Earth Physics ( Romania ),2022-10-25 12:03:58,-down-,60480.0,0.0,-down-,,0.0,0.0,0.166667',,5',POINT (28.657 44.161),28.657221,44.160809,,csta3
292,cstr,,Chile,Castro CL,SXCH40,ADC0935C,6.06,12:44,7',5',Servicio Hidrográfico y Oceanográfico de la Armada ( Chile ) +Servicio Hidrográfico y Oceanográfico de la Armada ( Chile ),2011-06-07 19:15:03,7551,10080.0,75.0,31010,43200.0,72.0,59.0,1',4',5',POINT (-73.758 -42.481),-73.758181,-42.480894,,cstr
293,cstr2,,Chile,Castro CL,web,,5.69,12:43,7',10',Servicio Hidrográfico y Oceanográfico de la Armada ( Chile ) +Servicio Hidrográfico y Oceanográfico de la Armada ( Chile ),2013-03-18 17:40:25,10080,10080.0,100.0,43116,43200.0,100.0,100.0,1',2',10',POINT (-73.758 -42.481),-73.758181,-42.480894,,cstr2
294,CT03,,Italy,Catania,web,,0.29,12:48,3',5',Istituto Superiore per la Protezione e la Ricerca Ambientale ( Italy ),2010-09-13 18:14:24,10080,10080.0,100.0,39641,43200.0,92.0,100.0,1',3',5',POINT (15.094 37.498),15.0938,37.498,,CT03
295,cule,,USA,Culebra Is PR,web,,0.11,12:42,9',6',National Ocean Service-NOAA ( USA ) +International Tsunami Information Center Caribbean Office ( USA ),2010-03-08 13:29:00,1680,1680.0,100.0,7188,7200.0,100.0,100.0,6',5',6',POINT (-65.303 18.301),-65.3028,18.3008,,cule
296,cule2,,USA,Culebra Is PR,SXXX03,3358913E,-2.97,2024-02-16 21:27,507d,6',National Ocean Service-NOAA ( USA ) +International Tsunami Information Center Caribbean Office ( USA ),2012-12-05 18:19:24,,10080.0,0.0,,,0.0,0.0,1',,6',POINT (-65.303 18.301),-65.3028,18.3008,,cule2
297,curri,,Philippines,Currimao,SXXX33,12D7050E,6.45,2025-05-20 01:18,48d,15',National Mapping and Resource Information Authority ( Philippines ),2009-10-21 09:21:00,,3360.0,0.0,,,0.0,0.0,3',,15',POINT (120.483 18.017),120.483333,18.016667,,curri
298,cuvie,,Australia,Cape Cuvier Wharf,SZAU01,62385,0.86,12:47,4',3',National Tidal Centre/Australian Bureau of Meteorology ( Australia ),2009-02-09 10:09:00,,,0.0,,,0.0,0.0,',,3',POINT (113.397 -24.221),113.3969,-24.2206,,cuvie
299,cuxh,284,Germany,Cuxhaven,web,,5.09,12:48,3',5',German Federal Waterways and Shipping Administration ( Germany ) +Informationstechnikzentrum Bund ( Germany ),2008-08-04 22:00:00,10070,10080.0,100.0,43066,43200.0,100.0,100.0,1',3',5',POINT (8.717 53.868),8.7175,53.867778,,cuxh
300,cwfl,,USA,Clearwater Beach FL,web,3358C142,1.07,12:45,6',5',National Ocean Service-NOAA ( USA ),2008-06-24 00:00:00,10080,10080.0,100.0,42884,43200.0,99.0,100.0,1',7',5',POINT (-82.832 27.978),-82.832,27.978,,cwfl
301,cwfl2,,USA,Clearwater Beach FL,SXXX50,3358C142,-4.95,12:38,13',5',National Ocean Service-NOAA ( USA ),2012-12-05 18:19:24,7945,10080.0,79.0,34275,43200.0,79.0,79.0,1',8',5',POINT (-82.832 27.978),-82.832,27.978,,cwfl2
302,cwme,,USA,"Cutler Farris Wharf, ME",web,33672252,3.72,12:42,9',6',National Ocean Service-NOAA ( USA ),2011-02-21 11:51:22,1680,1680.0,100.0,7191,7200.0,100.0,100.0,6',5',6',POINT (-67.21 44.657),-67.21,44.656667,,cwme
303,cwme2,,USA,"Cutler Farris Wharf, ME",SXXX03,33672252,-3.5,12:44,7',6',National Ocean Service-NOAA ( USA ),2012-12-05 18:19:24,9594,10080.0,95.0,41298,43200.0,96.0,94.0,1',5',6',POINT (-67.21 44.657),-67.21,44.656667,,cwme2
304,dacp,,USA,DART South of Acapulco,web,,3425.16,12:00,51',6h,National Ocean Service-NOAA ( USA ),2023-02-28 15:54:34,672,672.0,100.0,2880,2880.0,100.0,100.0,15',27',6h,POINT (-100.012 10.932),-100.0117,10.9322,,dacp
305,dacp2,,USA,DART South of Acapulco,dart,DD43413,3424.99,12:00,51',6h,National Ocean Service-NOAA ( USA ),2023-06-20 08:11:02,672,672.0,100.0,2880,2880.0,100.0,100.0,15',177',6h,POINT (-100.012 10.932),-100.0117,10.9322,,dacp2
306,dada,,USA,DART SE of Adak,web,,,-down-,7128d,6h,,2023-02-28 15:55:25,-down-,672.0,0.0,-down-,,0.0,0.0,15',,6h,POINT (-170.79 46.638),-170.79,46.638,,dada
307,dadk,,USA,DART SSE of Adak Island,web,,5614.87,12:00,51',6h,National Ocean Service-NOAA ( USA ),2023-02-28 15:55:28,540,672.0,80.0,2548,2880.0,88.0,93.0,15',27',6h,POINT (-174.203 48.002),-174.2028,48.0017,,dadk
308,dadk2,,USA,DART SSE of Adak Island,dart,DD46413,5614.9,12:00,51',6h,National Ocean Service-NOAA ( USA ),2023-06-20 08:11:02,536,672.0,80.0,2536,2880.0,88.0,93.0,15',171',6h,POINT (-174.203 48.002),-174.2028,48.0017,,dadk2
309,dakar,253,Sénégal,Dakar,SXXX33,360916B8,7.17,2024-02-26 15:01,497d,15',Centre de Recherches Océanographiques and the Service Hydrographique et de Cartographie ( Senegal ) +University of Hawaii Sea Level Center ( USA ),2007-10-27 10:49:00,,3360.0,0.0,,,0.0,0.0,3',,15',POINT (-17.42 14.676),-17.42,14.676,,dakar
310,danc,,USA,DART SSE of Cordova,web,,3725.54,12:00,51',6h,National Ocean Service-NOAA ( USA ),2023-02-28 15:55:28,623,672.0,93.0,2836,2880.0,98.0,99.0,15',21',6h,POINT (-143.814 57.64),-143.8142,57.64,,danc
311,danc2,,USA,DART SSE of Cordova,dart,DD46410,,,,6h,National Ocean Service-NOAA ( USA ),2023-06-20 08:11:02,,,0.0,,,0.0,0.0,',,6h,POINT (-143.814 57.64),-143.8142,57.64,,danc2
312,dapi,,Samoa,DART NW of Apia,web,,4951.3,12:00,51',6h,National Ocean Service-NOAA ( USA ),2023-02-28 15:55:28,572,672.0,85.0,2812,2880.0,98.0,100.0,15',27',6h,POINT (-176.247 -9.518),-176.2469,-9.5183,,dapi
313,dapi2,,USA,DART NW of Apia,dart,DD51425,4951.26,12:00,51',6h,National Ocean Service-NOAA ( USA ),2023-06-20 08:11:02,572,672.0,85.0,2788,2880.0,97.0,100.0,15',172',6h,POINT (-176.247 -9.518),-176.2469,-9.5183,,dapi2
314,dar1,,India,DART Arabian Sea,dart,23226,,-down-,,6h,,2023-06-20 08:11:02,-down-,,0.0,-down-,,0.0,0.0,',,6h,POINT (67.333 20.2),67.3333,20.2,,dar1
315,dar2,,India,DART Arabian Sea,web,,2825.22,2025-06-25 06:00,12d,6h,,2023-02-28 15:55:28,,672.0,0.0,1914,2880.0,66.0,0.0,15',,6h,POINT (67.333 20.2),67.3333,20.2,,dar2
316,dara,,India,DART Arabian Sea,web,,2790.16,12:00,51',6h,,2023-02-28 15:55:28,672,672.0,100.0,2880,2880.0,100.0,100.0,15',39',6h,POINT (65.284 20.764),65.2839,20.7641,,dara
317,dara2,,India,DART Arabian Sea,dart,23228,,-down-,,6h,,2023-06-20 08:11:02,-down-,,0.0,-down-,,0.0,0.0,',,6h,POINT (65.284 20.764),65.2839,20.7641,,dara2
318,darw,62,Australia,Darwin AU,SZAU01,63230,-999.0,12:47,4',3',National Tidal Centre/Australian Bureau of Meteorology ( Australia ),2007-12-05 22:50:00,10080,10080.0,100.0,43197,43200.0,100.0,100.0,1',2',3',POINT (130.846 -12.472),130.8458,-12.4719,,darw
319,dasa,,India,DART Arabian Sea,web,,,-down-,,6h,,2023-02-28 15:55:28,-down-,,0.0,-down-,,0.0,0.0,',,6h,POINT (67.18 18.63),67.18,18.63,,dasa
320,dat2,,USA,DART E of Boston,web,,3988.38,12:00,51',6h,National Ocean Service-NOAA ( USA ),2023-02-28 15:55:28,672,672.0,100.0,2868,2880.0,100.0,100.0,15',27',6h,POINT (-61.671 41.922),-61.6711,41.9219,,dat2
321,dat3,,USA,DART North of St Thomas,web,,5804.15,12:00,51',6h,National Ocean Service-NOAA ( USA ),2023-02-28 15:55:28,668,672.0,99.0,2864,2880.0,99.0,100.0,15',27',6h,POINT (-63.885 23.369),-63.8853,23.3689,,dat3
322,dat4,,USA,DART E of Boston,dart,DD44403,3988.42,12:00,51',6h,National Ocean Service-NOAA ( USA ),2023-06-20 08:11:02,672,672.0,100.0,2868,2880.0,100.0,100.0,15',189',6h,POINT (-61.671 41.922),-61.6711,41.9219,,dat4
323,dat5,,USA,DART North of St Thomas,dart,DD41421,5804.03,12:00,51',6h,National Ocean Service-NOAA ( USA ),2023-06-20 08:11:02,668,672.0,99.0,2840,2880.0,99.0,100.0,15',165',6h,POINT (-63.885 23.369),-63.8853,23.3689,,dat5
324,datl,,USA,DART East of Charleston,web,,,-down-,2806d,6h,National Ocean Service-NOAA ( USA ),2023-02-28 15:55:28,-down-,672.0,0.0,-down-,,0.0,0.0,15',,6h,POINT (-72.66 33),-72.66,33.0,,datl
325,datu,,USA,DART South of Attu,web,,4720.32,12:00,51',6h,National Ocean Service-NOAA ( USA ),2023-02-28 15:55:28,668,672.0,99.0,2852,2880.0,99.0,100.0,15',27',6h,POINT (171.897 50.153),171.8972,50.1533,,datu
326,datu2,,USA,DART South of Attu,dart,DD21415,4720.73,12:00,51',6h,National Ocean Service-NOAA ( USA ),2023-06-20 08:11:02,668,672.0,99.0,2848,2880.0,99.0,100.0,15',171',6h,POINT (171.897 50.153),171.8972,50.1533,,datu2
327,davo,71,Philippines,Davao PH,SZXX01,301434061609060,7.28,12:45,6',5',National Mapping and Resource Information Authority ( Philippines ) +University of Hawaii Sea Level Center ( USA ),2007-12-09 17:55:00,9040,10080.0,90.0,38650,43200.0,89.0,91.0,1',4',5',POINT (125.663 7.154),125.6629,7.153699999999999,,davo
328,dbal,,Indonesia,DART South Bali,web,,,-down-,4359d,6h,,2023-02-28 15:55:28,-down-,672.0,0.0,-down-,,0.0,0.0,15',,6h,POINT (113.607 -11.445),113.607,-11.445,,dbal
329,dbba,,India,DART Bay of Bengal IN3,web,,,-down-,2229d,6h,,2023-02-28 15:55:28,-down-,672.0,0.0,-down-,,0.0,0.0,15',,6h,POINT (91.701 3.798),91.701,3.798,,dbba
330,dber,,Bermudas,DART SSW of Hamilton,web,,5222.49,12:00,51',6h,National Ocean Service-NOAA ( USA ),2023-02-28 15:55:28,672,672.0,100.0,2876,2880.0,100.0,100.0,15',27',6h,POINT (-65.774 28.639),-65.7739,28.6386,,dber
331,dber2,,USA,DART SSW of Hamilton,dart,DD41425,5222.42,12:00,51',6h,National Ocean Service-NOAA ( USA ),2023-06-20 08:11:02,672,672.0,100.0,2876,2880.0,100.0,100.0,15',171',6h,POINT (-65.774 28.639),-65.7739,28.6386,,dber2
332,dcal,,USA,DART West of Mendocino Bay,web,,4266.33,05:00,8h,6h,National Ocean Service-NOAA ( USA ),2023-02-28 15:55:28,452,672.0,67.0,2160,2880.0,75.0,100.0,15',27',6h,POINT (-127.074 39.351),-127.0736,39.3511,,dcal
333,dcal2,,USA,DART West of Mendocino Bay,dart,DD46411,4266.72,05:00,8h,6h,National Ocean Service-NOAA ( USA ),2023-06-20 08:11:02,452,672.0,67.0,2160,2880.0,75.0,100.0,15',144',6h,POINT (-127.074 39.351),-127.0736,39.3511,,dcal2
334,dcar,,USA,DART Southwest of San Juan,web,,4498.8,12:00,51',6h,National Ocean Service-NOAA ( USA ),2023-02-28 15:55:28,668,672.0,99.0,2872,2880.0,100.0,96.0,15',27',6h,POINT (-68.191 15.276),-68.1911,15.2764,,dcar
335,dcar2,,USA,DART Southwest of San Juan,dart,DD42407,4498.55,12:00,51',6h,National Ocean Service-NOAA ( USA ),2023-06-20 08:11:02,668,672.0,99.0,2868,2880.0,100.0,96.0,15',171',6h,POINT (-68.191 15.276),-68.1911,15.2764,,dcar2
336,dch2,,Chile,DART West of Antofagasta,web,,4267.49,2025-06-08 03:00,29d,6h,Servicio Hidrográfico y Oceanográfico de la Armada ( Chile ),2023-02-28 15:55:28,,672.0,0.0,685,2880.0,24.0,0.0,15',,6h,POINT (-72.066 -23.169),-72.06625,-23.169383,,dch2
337,dch3,,Chile,DART NW of Concepcion,web,,4125.65,12:00,51',6h,Servicio Hidrográfico y Oceanográfico de la Armada ( Chile ),2023-02-28 15:55:28,652,672.0,97.0,2596,2880.0,90.0,100.0,15',33',6h,POINT (-75.284 -35.747),-75.283767,-35.74695,,dch3
338,dch4,,Chile,DART West of Antofagasta,dart,DD32403,4267.17,2025-06-08 03:00,29d,6h,Servicio Hidrográfico y Oceanográfico de la Armada ( Chile ),2023-06-20 08:11:02,,672.0,0.0,685,2880.0,24.0,0.0,15',,6h,POINT (-72.066 -23.169),-72.06625,-23.169383,,dch4
339,dch5,,Chile,DART NW of Concepcion,dart,DD34420,4126.08,12:00,51',6h,Servicio Hidrográfico y Oceanográfico de la Armada ( Chile ),2023-06-20 08:11:02,652,672.0,97.0,2544,2880.0,88.0,100.0,15',209',6h,POINT (-75.284 -35.747),-75.283767,-35.74695,,dch5
340,dchi,,Chile,DART West of Iquique,web,,4746.66,2025-05-03 21:00,65d,6h,Servicio Hidrográfico y Oceanográfico de la Armada ( Chile ),2023-02-28 15:55:28,,672.0,0.0,,,0.0,0.0,15',,6h,POINT (-73.422 -20.442),-73.421667,-20.441667,,dchi
341,dchi2,,Chile,DART West of Iquique,dart,DD32401,4747.26,2025-05-03 21:00,65d,6h,Servicio Hidrográfico y Oceanográfico de la Armada ( Chile ),2023-06-20 08:11:02,,672.0,0.0,,,0.0,0.0,15',,6h,POINT (-73.422 -20.442),-73.421667,-20.441667,,dchi2
342,dchr,,USA,DART SE of Chirikof Island,web,,4673.43,12:00,51',6h,National Ocean Service-NOAA ( USA ),2023-02-28 15:55:28,672,672.0,100.0,911,2880.0,32.0,100.0,15',27',6h,POINT (-152.483 53.726),-152.4833,53.7256,,dchr
343,dchr2,,USA,DART SE of Chirikof Island,dart,DD46414,4672.89,12:00,51',6h,National Ocean Service-NOAA ( USA ),2023-06-20 08:11:02,648,672.0,96.0,887,2880.0,31.0,100.0,15',174',6h,POINT (-152.483 53.726),-152.4833,53.7256,,dchr2
344,dchu,,USA,DART South of Umnak Is,web,,5324.55,12:00,51',6h,National Ocean Service-NOAA ( USA ),2023-02-28 15:55:28,668,672.0,99.0,387,2880.0,13.0,100.0,15',27',6h,POINT (-169.872 49.663),-169.8717,49.6625,,dchu
345,dchu2,,USA,DART South of Umnak Is,dart,DD46408,5324.47,12:00,51',6h,National Ocean Service-NOAA ( USA ),2023-06-20 08:11:02,668,672.0,99.0,387,2880.0,13.0,100.0,15',189',6h,POINT (-169.872 49.663),-169.8717,49.6625,,dchu2
346,dcld,,Chile,DART West of Caldera,web,,4059.83,12:00,51',6h,Servicio Hidrográfico y Oceanográfico de la Armada ( Chile ),2023-09-14 16:17:27,672,672.0,100.0,2880,2880.0,100.0,100.0,15',27',6h,POINT (-73.985 -26.745),-73.98453,-26.744836,,dcld
347,dcld2,,Chile,DART West of Caldera,dart,DD32402,4060.32,12:00,51',6h,Servicio Hidrográfico y Oceanográfico de la Armada ( Chile ),2023-06-20 08:11:02,672,672.0,100.0,2856,2880.0,99.0,100.0,15',174',6h,POINT (-73.985 -26.745),-73.98453,-26.744836,,dcld2
348,dcol,,Colombia,DART SW of Buenaventura,web,,,-down-,2260d,6h,,2023-02-28 15:55:28,-down-,672.0,0.0,-down-,,0.0,0.0,15',,6h,POINT (-79.074 2.986),-79.074,2.986,,dcol
349,dcol2,,Colombia,DART SW of Buenaventura,dart,DD32489,,-down-,,6h,,2023-06-20 08:11:02,-down-,,0.0,-down-,,0.0,0.0,',,6h,POINT (-79.074 2.986),-79.074,2.986,,dcol2
350,dcor,,Australia,DART ENE of Townsville,web,,3346.71,12:00,51',6h,National Tidal Centre/Australian Bureau of Meteorology ( Australia ),2023-02-28 15:55:28,672,672.0,100.0,2876,2880.0,100.0,100.0,15',42',6h,POINT (158.464 -15.711),158.4644,-15.7109,,dcor
351,dcor2,,Australia,DART ENE of Townsville,dart,55012,3347.28,12:00,51',6h,National Tidal Centre/Australian Bureau of Meteorology ( Australia ),2023-06-20 08:11:02,672,672.0,100.0,2876,2880.0,100.0,100.0,15',204',6h,POINT (158.464 -15.711),158.4644,-15.7109,,dcor2
352,dcr2,,Australia,DART NE of Townsville,web,,4592.29,12:00,51',6h,National Tidal Centre/Australian Bureau of Meteorology ( Australia ),2023-02-28 15:55:28,672,672.0,100.0,2880,2880.0,100.0,100.0,15',33',6h,POINT (153.537 -14.715),153.5374,-14.7148,,dcr2
353,dcr3,,Australia,DART NE of Townsville,dart,55023,4593.06,12:00,51',6h,National Tidal Centre/Australian Bureau of Meteorology ( Australia ),2023-06-20 08:11:02,672,672.0,100.0,2880,2880.0,100.0,100.0,15',207',6h,POINT (153.537 -14.715),153.5374,-14.7148,,dcr3
354,dcss,,USA,DART Castle Rock Seamount,web,,-999.0,-down-,3355d,6h,,2023-09-14 16:24:41,-down-,672.0,0.0,-down-,,0.0,0.0,15',,6h,POINT (-50.03 37.592),-50.03,37.592,,dcss
355,deke,115,Micronesia,"Dekehtik,Pohnpei FM",SZPA01,67950,1.16,12:47,4',3',National Weather Service ( Micronesia ) +National Tidal Centre/Australian Bureau of Meteorology ( Australia ),2008-06-05 13:17:00,10077,10080.0,100.0,43194,43200.0,100.0,100.0,1',2',3',POINT (158.2 6.981),158.2001,6.980599999999999,,deke
356,delf,,Netherlands,Delfzijl,web,,-0.34,12:30,21',10',Rijkswaterstaat ( Netherlands ),2017-01-16 15:44:57,720,1008.0,71.0,4311,4320.0,100.0,100.0,10',14',10',POINT (6.933 53.327),6.932969941749999,53.3266112653,,delf
357,delo,,Greece,"Delos Island, Kiklades",bgan,GR-DELO-00,,,,1',National Observatory of Athens ( Greece ),2025-01-17 12:25:46,,,0.0,,,0.0,0.0,',,1',POINT (25.265 37.399),25.264822509675,37.398608832292,,delo
358,denh,,Netherlands,Den Helder,web,,0.5,12:30,21',10',Rijkswaterstaat ( Netherlands ),2017-01-16 15:40:05,720,1008.0,71.0,4311,4320.0,100.0,100.0,10',14',10',POINT (4.743 52.964),4.74342344269,52.9636753352,,denh
359,denis,,Seychelles,Denis Island,SXXX33,26B7620C,5.7,-down-,4541d,15',+University of Hawaii Sea Level Center ( USA ),2009-05-27 07:03:00,-down-,3360.0,0.0,-down-,,0.0,0.0,3',,15',POINT (55.667 -3.8),55.6667,-3.799999999999999,,denis
360,dese,190,Argentina,Puerto Deseado,SEPO40,33912088,5.56,12:34,17',15',Armada Argentina Servicio de Hidrografía Naval ( Argentina ) +University of Hawaii Sea Level Center ( USA ),2010-03-23 20:24:00,3345,3360.0,100.0,14359,14400.0,100.0,100.0,3',4',15',POINT (-65.915 -47.754),-65.91469444,-47.75357778,,dese
361,desh,,France,"Deshaies, Guadeloupe",SXMF40,12A0419C,0.01,12:45,6',5',"Institut de Physique du Globe de Paris, Observatoire Volcanologique et Sismologique de Guadeloupe ( France ) +International Tsunami Information Center Caribbean Office ( USA )",2013-06-07 14:44:51,10025,10080.0,99.0,42955,43200.0,99.0,100.0,1',3',5',POINT (-61.796 16.305),-61.79591,16.30529,,desh
362,desi,,France,"La Desirade Island, Guadeloupe",SXMF40,12A00296,0.6,-down-,1106d,5',"Institut de Physique du Globe de Paris, Observatoire Volcanologique et Sismologique de Guadeloupe ( France ) +International Tsunami Information Center Caribbean Office ( USA )",2010-09-08 12:50:37,-down-,10080.0,0.0,-down-,,0.0,0.0,1',,5',POINT (-61.072 16.303),-61.07248,16.30289,,desi
363,dfij,,Fiji Islands,DART Fiji Basin,web,,,-down-,5271d,6h,,2023-02-28 15:55:28,-down-,672.0,0.0,-down-,,0.0,0.0,15',,6h,POINT (176 -26),176.0,-26.0,,dfij
364,dgal,,Perú,DART WNW of Lima,web,,3969.96,12:00,51',6h,National Ocean Service-NOAA ( USA ),2023-02-28 15:55:28,672,672.0,100.0,2876,2880.0,100.0,100.0,15',27',6h,POINT (-93.517 -7.406),-93.5169,-7.406399999999999,,dgal
365,dgal2,,USA,DART WNW of Lima,dart,DD32413,3970.17,12:00,51',6h,National Ocean Service-NOAA ( USA ),2023-06-20 08:11:02,648,672.0,96.0,2828,2880.0,98.0,100.0,15',192',6h,POINT (-93.517 -7.406),-93.5169,-7.406399999999999,,dgal2
366,dgme,,USA,DART WNW of Loggerhead Key,web,,,-down-,6063d,6h,,2023-02-28 15:55:28,-down-,672.0,0.0,-down-,,0.0,0.0,15',,6h,POINT (-87 25.2),-87.0,25.2,,dgme
367,dgmx,,USA,DART DART WAVE GLIDER STATION,web,,,-down-,,6h,,2023-02-28 15:55:28,-down-,,0.0,-down-,,0.0,0.0,',,6h,POINT (-85.671 27.401),-85.671,27.401,,dgmx
368,dgul,,USA,DART South of New Orleans,web,,3199.41,12:00,51',6h,National Ocean Service-NOAA ( USA ),2023-02-28 15:55:28,668,672.0,99.0,2872,2880.0,100.0,100.0,15',27',6h,POINT (-89.251 25.851),-89.2514,25.8514,,dgul
369,dgul2,,USA,DART South of New Orleans,dart,DD42409,3199.91,12:00,51',6h,National Ocean Service-NOAA ( USA ),2023-06-20 08:11:02,668,672.0,99.0,2836,2880.0,98.0,100.0,15',165',6h,POINT (-89.251 25.851),-89.2514,25.8514,,dgul2
370,dgum,,Guam,DART West of Agana,web,,5796.2,12:00,51',6h,National Ocean Service-NOAA ( USA ),2023-02-28 15:55:28,672,672.0,100.0,2880,2880.0,100.0,100.0,15',27',6h,POINT (132.165 12.985),132.165,12.985,,dgum
371,dgum2,,USA,DART West of Agana,dart,DD52405,5796.71,12:00,51',6h,National Ocean Service-NOAA ( USA ),2023-06-20 08:11:02,672,672.0,100.0,2880,2880.0,100.0,100.0,15',171',6h,POINT (132.165 12.985),132.165,12.985,,dgum2
372,dhai,,Canada,DART West of Vancouver,web,,3393.05,12:00,51',6h,National Ocean Service-NOAA ( USA ),2023-02-28 15:55:28,672,672.0,100.0,2587,2880.0,90.0,100.0,15',27',6h,POINT (-134.395 49.901),-134.395,49.9014,,dhai
373,dhai2,,USA,DART West of Vancouver,dart,DD46416,3391.99,12:00,51',6h,National Ocean Service-NOAA ( USA ),2023-06-20 08:11:02,672,672.0,100.0,2591,2880.0,90.0,100.0,15',187',6h,POINT (-134.395 49.901),-134.395,49.9014,,dhai2
374,dhaw,,USA,DART West of Kailua-Kona,web,,4741.59,2025-05-12 23:00,56d,6h,National Ocean Service-NOAA ( USA ),2023-02-28 15:55:28,,672.0,0.0,,,0.0,0.0,15',,6h,POINT (-156.547 19.561),-156.5472,19.5605,,dhaw
375,dhaw2,,USA,DART West of Kailua-Kona,dart,DD51407,4741.4,2025-05-12 23:00,56d,6h,National Ocean Service-NOAA ( USA ),2023-06-20 08:11:02,,672.0,0.0,,,0.0,0.0,15',,6h,POINT (-156.547 19.561),-156.5472,19.5605,,dhaw2
376,dhon,,USA,DART NE of Guadalcanal,web,,1779.46,2024-09-15 17:00,295d,6h,National Ocean Service-NOAA ( USA ),2023-02-28 15:55:28,,672.0,0.0,,,0.0,0.0,15',,6h,POINT (165.002 -5.293),165.0019,-5.293099999999999,,dhon
377,dhon2,,USA,DART NE of Guadalcanal,dart,DD52406,1780.13,2024-09-15 17:00,295d,6h,National Ocean Service-NOAA ( USA ),2023-06-20 08:11:02,,672.0,0.0,,,0.0,0.0,15',,6h,POINT (165.002 -5.293),165.0019,-5.293099999999999,,dhon2
378,dhta,,Australia,DART Southeast of Hobart,web,,,-down-,6307d,6h,,2023-02-28 15:55:28,-down-,672.0,0.0,-down-,,0.0,0.0,15',,6h,POINT (160.562 -46.922),160.562,-46.922,,dhta
379,dial,,USA,Dauphin Island AL,web,335752B2,0.63,12:45,6',6',National Ocean Service-NOAA ( USA ),2008-06-21 00:00:00,10076,10080.0,100.0,43134,43200.0,100.0,100.0,1',2',6',POINT (-88.1 30.2),-88.1,30.2,,dial
380,dial2,,USA,Dauphin Island AL,SXXX03,335752B2,,-down-,,6',National Ocean Service-NOAA ( USA ),2012-12-05 18:19:24,-down-,,0.0,-down-,,0.0,0.0,',,6',POINT (-88.1 30.2),-88.1,30.2,,dial2
381,diba,,Oman,Diba,SXOM33,18EE7334,0.14,-down-,1987d,6',Directorate General Meteorology and Air Navigation ( Oman ),2013-03-28 18:09:34,-down-,10080.0,0.0,-down-,,0.0,0.0,1',,6',POINT (56.269 25.649),56.269,25.649,,diba
382,diel,,France,Dielette,ftp,,4.8,12:45,6',5',Service hydrographique et océanographique de la marine ( France ) +Service hydrographique et océanographique de la marine ( France ),2015-09-21 14:04:49,10050,10080.0,100.0,43189,43200.0,100.0,99.0,1',1',5',POINT (-1.86 49.55),-1.86,49.55,,diel
383,diel2,,France,Dielette 2,SZFR01,FR628,4.8,12:45,6',6',Service hydrographique et océanographique de la marine ( France ),2015-09-21 14:12:46,9449,10080.0,94.0,41374,43200.0,96.0,96.0,1',6',6',POINT (-1.86 49.55),-1.86,49.55,,diel2
384,diep,,France,Dieppe,ftp,,3.73,12:44,7',5',Service hydrographique et océanographique de la marine ( France ) +Service hydrographique et océanographique de la marine ( France ),2009-04-15 00:00:34,10055,10080.0,100.0,43110,43200.0,100.0,100.0,1',2',5',POINT (1.085 49.93),1.085,49.93,,diep
385,diep2,,France,Dieppe 2,SZFR01,FR024,3.8,12:41,10',6',Service hydrographique et océanographique de la marine ( France ),2015-01-16 12:33:01,9848,10080.0,98.0,42774,43200.0,99.0,94.0,1',5',6',POINT (1.085 49.93),1.085,49.93,,diep2
386,dind,,,DART Indonesia,web,,,-down-,6307d,6h,,2023-02-28 15:55:28,-down-,672.0,0.0,-down-,,0.0,0.0,15',,6h,POINT (91.899 0.05),91.899,0.05,,dind
387,diw2,,Japan,DART East of Iwate,web,,,-down-,3202d,6h,,2023-02-28 15:55:28,-down-,672.0,0.0,-down-,,0.0,0.0,15',,6h,POINT (145.799 39.601),145.799,39.601,,diw2
388,diwa,,Japan,DART East of Iwate,web,,,-down-,3202d,6h,,2023-02-28 15:55:28,-down-,672.0,0.0,-down-,,0.0,0.0,15',,6h,POINT (146.192 40.302),146.192,40.302,,diwa
389,djib,2,Djibouti,Djibouti,SXXX32,3601E29A,3.19,-down-,2662d,15',Port of Djibouti ( Djibouti ),2007-02-20 09:56:00,-down-,10080.0,0.0,-down-,,0.0,0.0,1',,15',POINT (43.167 11.6),43.1666,11.6,,djib
390,djun,,USA,DART SW of Juneau,web,,3562.2,12:00,51',6h,National Ocean Service-NOAA ( USA ),2023-02-28 15:55:28,672,672.0,100.0,2848,2880.0,99.0,100.0,15',27',6h,POINT (-139.95 52.98),-139.95,52.98,,djun
391,djun2,,USA,DART SW of Juneau,dart,DD46415,3561.33,12:00,51',6h,National Ocean Service-NOAA ( USA ),2023-06-20 08:11:02,672,672.0,100.0,2828,2880.0,98.0,100.0,15',154',6h,POINT (-139.95 52.98),-139.95,52.98,,djun2
392,djve,,Australia,DART NNE of Dampier,web,,5659.49,12:00,51',6h,National Tidal Centre/Australian Bureau of Meteorology ( Australia ),2023-02-28 15:55:28,672,672.0,100.0,2880,2880.0,100.0,100.0,15',33',6h,POINT (117.942 -15.023),117.9418,-15.0234,,djve
393,djve2,,Australia,DART NNE of Dampier,dart,56003,5659.24,12:00,51',6h,National Tidal Centre/Australian Bureau of Meteorology ( Australia ),2023-06-20 08:11:02,672,672.0,100.0,2880,2880.0,100.0,100.0,15',177',6h,POINT (117.942 -15.023),117.9418,-15.0234,,djve2
394,djvw,,Australia,DART NW of Dampier,web,,,2023-09-15 04:42,661d,6h,National Tidal Centre/Australian Bureau of Meteorology ( Australia ),2023-02-28 15:55:28,,10080.0,0.0,,,0.0,0.0,1',,6h,POINT (110.097 -13.991),110.097,-13.9908,,djvw
395,djvw2,,Australia,DART NW of Dampier,dart,56001,,,,6h,National Tidal Centre/Australian Bureau of Meteorology ( Australia ),2023-06-20 08:11:02,,,0.0,,,0.0,0.0,',,6h,POINT (110.097 -13.991),110.097,-13.9908,,djvw2
396,dkam,,USA,DART SE of Kamchatka Peninsula,web,,5753.63,12:00,51',6h,National Ocean Service-NOAA ( USA ),2023-02-28 15:55:28,672,672.0,100.0,2778,2880.0,96.0,100.0,15',27',6h,POINT (163.521 48.053),163.5211,48.0528,,dkam
397,dkam2,,USA,DART SE of Kamchatka Peninsula,dart,DD21416,5754.09,12:00,51',6h,National Ocean Service-NOAA ( USA ),2023-06-20 08:11:02,672,672.0,100.0,2722,2880.0,95.0,100.0,15',201',6h,POINT (163.521 48.053),163.5211,48.0528,,dkam2
398,dkod,,USA,DART SE of Kodiak,web,,4195.48,12:00,51',6h,National Ocean Service-NOAA ( USA ),2023-02-28 15:55:28,648,672.0,96.0,1619,2880.0,56.0,96.0,15',27',6h,POINT (-148.55 55.31),-148.55,55.31,,dkod
399,dkod2,,USA,DART SE of Kodiak,dart,DD46409,4194.84,12:00,51',6h,National Ocean Service-NOAA ( USA ),2023-06-20 08:11:02,648,672.0,96.0,1619,2880.0,56.0,96.0,15',171',6h,POINT (-148.55 55.31),-148.55,55.31,,dkod2
400,dkui,,Japan,DART SE of the Kuril Islands,web,,,-down-,6154d,6h,,2023-02-28 15:55:28,-down-,672.0,0.0,-down-,,0.0,0.0,15',,6h,POINT (157.142 43.192),157.142,43.192,,dkui
401,dkur,,USA,DART SE of Kuril Is.,web,,5322.33,12:00,51',6h,National Ocean Service-NOAA ( USA ),2023-02-28 15:55:28,664,672.0,99.0,2852,2880.0,99.0,100.0,15',27',6h,POINT (155.719 44.435),155.7187,44.435,,dkur
402,dkur2,,USA,DART SE of Kuril Is.,dart,DD21419,5322.89,12:00,51',6h,National Ocean Service-NOAA ( USA ),2023-06-20 08:11:03,664,672.0,99.0,2848,2880.0,99.0,100.0,15',171',6h,POINT (155.719 44.435),155.7187,44.435,,dkur2
403,dkwa,,USA,DART ESE of Saipan,web,,5886.19,12:00,51',6h,National Ocean Service-NOAA ( USA ),2023-02-28 15:55:28,576,672.0,86.0,2780,2880.0,97.0,100.0,15',27',6h,POINT (153.907 11.926),153.9072,11.9261,,dkwa
404,dkwa2,,USA,DART ESE of Saipan,dart,DD52402,5886.59,12:00,51',6h,National Ocean Service-NOAA ( USA ),2023-06-20 08:11:03,576,672.0,86.0,2752,2880.0,96.0,100.0,15',189',6h,POINT (153.907 11.926),153.9072,11.9261,,dkwa2
405,dlim,,Perú,DART SW of Lima,web,,,-down-,,6h,,2023-02-28 15:55:28,-down-,,0.0,-down-,,0.0,0.0,',,6h,POINT (-86.33 -17.98),-86.33,-17.98,,dlim
406,dlos,,USA,DART West of San Diego,web,,,-down-,2321d,6h,National Ocean Service-NOAA ( USA ),2023-02-28 15:55:28,-down-,672.0,0.0,-down-,,0.0,0.0,15',,6h,POINT (-120.582 32.4),-120.582,32.4,,dlos
407,dlpr,,UK,Deal Pier,web,,-0.04,12:51,-1',0.1666',Channel Coastal Observatory ( UK ),2012-09-20 17:51:18,61132,60504.0,101.0,260894,259304.0,101.0,100.0,0.1666',,0.1666',POINT (1.409 51.224),1.40926,51.22379,,dlpr
